X,Y,OBJECTID,Owner,Path,Source,Type,HIFLD_ID,Name,Max_Voltage,ZIP_CODE,STATE,COUNTY,CITY,Lon,Lat
-13608019.1834,4547328.302,1,Other,,CEC,SUBSTATION,310025,Jenney,115,94501,CA,Alameda County,Alameda,-122.242916190076,37.7724357154676
-13654155.8073,4616931.1615,2,PG&E,,CEC,SUBSTATION,306474,Corona,115,94954,CA,Sonoma County,Petaluma,-122.657368534231,38.2650127047925
-13539338.9708,4548179.7836,3,PG&E,,CEC,SUBSTATION,310124,South Bay 1,,94514,CA,Alameda County,Unincorporated,-121.62595134314,37.7784816101578
-13545044.8736,4543940.5804,4,PG&E,,CEC,SUBSTATION,306256,Altamont,60,94551,CA,Alameda County,Unincorporated,-121.677208340655,37.7483765023642
-13587799.2447,4535905.499,5,PG&E,,CEC,SUBSTATION,303892,Castro Valley,230,94546,CA,Alameda County,Unincorporated,-122.061277390173,37.6912809843576
-13606423.851,4557887.181,6,PG&E,,CEC,SUBSTATION,303608,Claremont,115,94618,CA,Alameda County,Oakland,-122.228585075864,37.8473734552127
-13582918.7645,4522479.6828,7,Other,,CEC,SUBSTATION,303469,Cryogenics,115,94587,CA,Alameda County,Union City,-122.017435290774,37.5957819341632
-13748979.7825,4879615.9929,8,PG&E,,CEC,SUBSTATION,307419,Kekawaka,60,95595,CA,Trinity County,Unincorporated,-123.509186796409,40.0940307349166
-13587427.73,4517031.2912,9,PG&E,,CEC,SUBSTATION,307780,Dumbarton,115,94555,CA,Alameda County,Fremont,-122.057940016855,37.556992018214
-13593958.9777,4526596.5433,10,PG&E,East Bay,CEC,SUBSTATION,301389,Eastshore,230,94545,CA,Alameda County,Hayward,-122.116611213831,37.6250785878158
-13602551.4901,4542576.8933,11,PG&E,,CEC,SUBSTATION,303133,Edes,115,94603,CA,Alameda County,Oakland,-122.193799065496,37.7386895431528
-13576742.9963,4514836.8731,12,PG&E,,CEC,SUBSTATION,302108,Fremont,115,94538,CA,Alameda County,Fremont,-121.961957421571,37.5413631140401
-13574235.0932,4508146.2269,13,Other,,CEC,SUBSTATION,305808,Nummi,115,94538,CA,Alameda County,Fremont,-121.939428544419,37.4936913182854
-13598737.6408,4533090.5317,14,PG&E,,CEC,SUBSTATION,303596,Grant,115,94579,CA,Alameda County,San Leandro,-122.159538674361,37.6712680392574
-13608336.2025,4561948.09,15,Other,,CEC,SUBSTATION,305871,Grizzly,115,94720,CA,Alameda County,Oakland,-122.245764021398,37.8761740015629
-13562262.4889,4532623.3478,16,PG&E,,CEC,SUBSTATION,308301,Luka,60,94566,CA,Alameda County,Unincorporated,-121.831876810504,37.6679460836703
-13582925.016,4522413.4567,17,PG&E,,CEC,,306175,Air Liquide,115,94587,CA,Alameda County,Union City,-122.01749144961,37.5953105578757
-13570625.6616,4538332.8379,18,Other,,CEC,SUBSTATION,303791,Kaiser,,94568,CA,Alameda County,Dublin,-121.907004468928,37.7085337583635
-13551282.7869,4537248.0944,19,PG&E,,CEC,SUBSTATION,301848,Las Positas,230,94551,CA,Alameda County,Livermore,-121.733244469123,37.7008242328294
-13556543.7862,4534322.5639,20,PG&E,,CEC,SUBSTATION,307237,Livermore,60,94551,CA,Alameda County,Livermore,-121.780504829751,37.6800278079613
-13592315.5566,4527577.8488,21,PG&E,East Bay,CEC,SUBSTATION,305785,Mt. Eden,,94545,CA,Alameda County,Hayward,-122.101848110592,37.6320601100397
-13579448.6166,4509153.9051,22,PG&E,,CEC,SUBSTATION,306611,Newark,230,94538,CA,Alameda County,Fremont,-121.986262422237,37.5008731153781
-13569161.3564,4538770.4334,23,PG&E,,CEC,SUBSTATION,305695,Parks,,94568,CA,Alameda County,Dublin,-121.893850391487,37.7116436247963
-13565340.6075,4533271.5314,24,PG&E,,CEC,SUBSTATION,300539,Radum,60,94566,CA,Alameda County,Pleasanton,-121.85952801976,37.6725550146511
-13538670.2142,4551078.0663,25,PG&E,,CEC,SUBSTATION,302831,Ralph,,94514,CA,Alameda County,Unincorporated,-121.619943800618,37.7990569898635
-13596333.972,4508044.7608,26,PG&E,,CEC,SUBSTATION,308197,Ravenswood,230,94025,CA,San Mateo County,Menlo Park,-122.137946150405,37.4929681240831
-13597474.1263,4538627.067,27,PG&E,,CEC,SUBSTATION,304946,San Leandro U,115,94578,CA,Alameda County,San Leandro,-122.148188330931,37.7106247749454
-13604855.331,4545999.3052,28,PG&E,,CEC,SUBSTATION,306989,Oakland J,115,94621,CA,Alameda County,Oakland,-122.214494820978,37.762998264281
-13566471.1661,4521232.2583,29,PG&E,,CEC,SUBSTATION,306148,Sunol,,94586,CA,Alameda County,Unincorporated,-121.869684001036,37.5869026582872
-13532538.0762,4538876.3597,30,PG&E,15X,CEC,SUBSTATION,305530,Tesla,500,95377,CA,Alameda County,Unincorporated,-121.564857867683,37.7123963931528
-13563464.0945,4524371.2126,31,PG&E,,CEC,SUBSTATION,300606,Vallecitos,,94586,CA,Alameda County,Unincorporated,-121.842671017308,37.6092439871984
-13549349.2199,4538696.6451,32,PG&E,,CEC,SUBSTATION,306744,Vasco,60,94551,CA,Alameda County,Livermore,-121.715874941143,37.711119241469
-13564773.9437,4532868.502,33,PG&E,,CEC,SUBSTATION,306816,Vineyard,,94566,CA,Alameda County,Pleasanton,-121.854437592466,37.669689294754
-13449854.4248,4637332.9083,34,PG&E,,CEC,SUBSTATION,306187,Amfor,60,95685,CA,Amador County,Unincorporated,-120.822097989391,38.4087669994302
-13462420.4345,4627879.291,35,PG&E,,CEC,SUBSTATION,300035,Clay,60,95640,CA,Amador County,Ione,-120.93498037585,38.3421906119132
-13464932.8454,4632380.978,36,Other,,CEC,SUBSTATION,300305,Ione,60,95640,CA,Amador County,Unincorporated,-120.957549746726,38.3739010435691
-13460073.7266,4618655.4581,37,PG&E,,CEC,SUBSTATION,303132,Ione Energy,,95640,CA,Amador County,Unincorporated,-120.913899539572,38.2771734345871
-13447033.1472,4631700.4189,38,PG&E,,CEC,SUBSTATION,306434,Martell,60,95642,CA,Amador County,Unincorporated,-120.796754021794,38.3691079933144
-13448004.5574,4631633.3675,39,Other,,CEC,SUBSTATION,300400,Nepco,,95685,CA,Amador County,Unincorporated,-120.805480348137,38.3686357458748
-13452397.5903,4647566.0775,40,PG&E,,CEC,SUBSTATION,304637,Oleta,60,95669,CA,Amador County,Plymouth,-120.844943633836,38.480764254906
-13382653.317,4650077.0825,41,PG&E,H11,CEC,SUBSTATION,306859,Salt Springs,115,95666,CA,Amador County,Unincorporated,-120.218420167047,38.498419895679
-13431835.8017,4637905.5338,42,PG&E,,CEC,SUBSTATION,306215,Pine Grove,60,95665,CA,Amador County,Unincorporated,-120.660233944587,38.4127977031006
-13522816.5253,4538956.4391,43,PG&E,,CEC,SUBSTATION,307115,Lammers,115,95377,CA,San Joaquin County,Unincorporated,-121.477527690566,37.7129654742456
-13532607.934,4790839.4157,44,PG&E,,CEC,SUBSTATION,302814,A.P.T. Oro,,95965,CA,Butte County,Oroville,-121.565485410807,39.4812263331145
-13545980.7237,4774049.068,45,Other,,CEC,SUBSTATION,301839,Gridley,60,95948,CA,Butte County,Gridley,-121.685615224939,39.3647131649862
-13533642.7997,4789851.7203,46,Other,,CEC,SUBSTATION,305907,Louisiana Pacific (Oroville),,95965,CA,Butte County,Unincorporated,-121.574781767753,39.4743778164796
-13546315.9538,4780392.1544,47,Other,,CEC,,,City Of Biggs,,95917,CA,Butte County,Unincorporated,-121.688626648085,39.4087526014119
-13407016.7036,4115507.9878,48,PG&E,,CEC,SUBSTATION,303296,Cabrillo,115,93436,CA,Santa Barbara County,Lompoc,-120.437280193133,34.6432697885287
-13572030.7477,4838508.5015,49,Other,,CEC,SUBSTATION,307094,Anita,60,95973,CA,Butte County,Unincorporated,-121.919626572277,39.8109537405042
-13514539.6995,4777355.6248,50,PG&E,,CEC,SUBSTATION,302304,Bangor,,95914,CA,Butte County,Unincorporated,-121.403175699252,39.3876737377382
-13524373.9075,4819166.513,51,PG&E,H10,CEC,SUBSTATION,303665,Big Bend,115,95965,CA,Butte County,Unincorporated,-121.491517892521,39.6773546412159
-13560200.8816,4824208.6164,52,PG&E,,CEC,SUBSTATION,303732,Butte,115,95928,CA,Butte County,Chico,-121.813357076893,39.7122064481817
-13561042.8518,4825168.6215,53,PG&E,,CEC,SUBSTATION,304029,Chico A,,95928,CA,Butte County,Chico,-121.820920623596,39.7188401587555
-13563954.4337,4826134.6624,54,PG&E,,CEC,SUBSTATION,308381,Chico B,115,95928,CA,Butte County,Chico,-121.847075808512,39.7255149336051
-12953960.3481,4004355.944,55,IID,,CEC,SUBSTATION,301865,Ramon,,92276,CA,Riverside County,Unincorporated,-116.367405705986,33.8177460179467
-13555188.8893,4809102.14,56,PG&E,,CEC,SUBSTATION,300607,Esquon,115,95938,CA,Butte County,Unincorporated,-121.768333583841,39.6077355146463
-13582243.5054,4829160.6491,57,PG&E,,CEC,SUBSTATION,303483,Hamilton A,,95951,CA,Glenn County,Unincorporated,-122.011369335471,39.7464185417689
-13535929.9606,4767696.5323,58,PG&E,,CEC,SUBSTATION,310438,Honcut,115,95965,CA,Butte County,Unincorporated,-121.595327683914,39.3205802731081
-13503675.2074,4804400.2145,59,Other,,CEC,SUBSTATION,306312,Kanaka,115,95966,CA,Butte County,Unincorporated,-121.305578305685,39.5751864763597
-13570630.5789,4831162.051,60,PG&E,,CEC,SUBSTATION,305811,Nord,115,95973,CA,Butte County,Unincorporated,-121.907048641732,39.7602408029847
-13537650.668,4847295.6124,61,PG&E,,CEC,SUBSTATION,300584,Oro Fino,,95954,CA,Butte County,Unincorporated,-121.610785061424,39.8715625311378
-13532014.5573,4794124.2454,62,PG&E,,CEC,SUBSTATION,300266,Oroville,60,95965,CA,Butte County,Oroville,-121.560155017326,39.503997949522
-13527284.2055,4786962.8579,63,PG&E,,CEC,SUBSTATION,307680,Palermo,230,95966,CA,Butte County,Unincorporated,-121.517661544136,39.4543430522814
-13538535.143,4831223.1827,64,PG&E,,CEC,SUBSTATION,309157,Paradise,,95969,CA,Butte County,Paradise,-121.61873043547,39.7606629529058
-13545922.7589,4775997.1867,65,PG&E,,CEC,SUBSTATION,301112,Peachton,,95948,CA,Butte County,Unincorporated,-121.685094518257,39.3782417220795
-13561388.8066,4832395.9466,66,PG&E,,CEC,SUBSTATION,303844,Sycamore Creek,115,95973,CA,Butte County,Chico,-121.824028388523,39.7687610613951
-13541435.787,4801525.7607,67,PG&E,66,CEC,SUBSTATION,300007,Table Mt.,500,95965,CA,Butte County,Unincorporated,-121.644787363876,39.5552805636078
-13546248.8904,4791638.2087,68,PG&E,,CEC,SUBSTATION,304191,Tres Vias,115,95965,CA,Butte County,Unincorporated,-121.688024207101,39.4867645388279
-13529876.2956,4792350.1565,69,PG&E,,CEC,SUBSTATION,302198,Wyandotte,115,95966,CA,Butte County,Unincorporated,-121.540946685493,39.4917002562126
-13432614.3483,4603454.4299,70,Other,,CEC,SUBSTATION,308779,Calaveras Cement,60,95249,CA,Calaveras County,Unincorporated,-120.667227747475,38.1698969240712
-13405330.5789,4589293.296,71,Other,,CEC,SUBSTATION,307549,Cataract,,95310,CA,Tuolumne County,Unincorporated,-120.422133476946,38.0698168751553
-13461440.321,4593771.5612,72,PG&E,,CEC,SUBSTATION,300455,Corral,60,95236,CA,Calaveras County,Unincorporated,-120.92617586661,38.1014806533932
-13417780.2807,4587502.7357,73,PG&E,,CEC,SUBSTATION,305719,Frogtown,,95222,CA,Calaveras County,Unincorporated,-120.533971051296,38.0571527997142
-13418030.7619,4571609.1819,74,WAPA,H2,CEC,SUBSTATION,304398,Melones,230,95222,CA,Calaveras County,Unincorporated,-120.536221161622,37.9446465972051
-13408034.0804,4600211.0163,75,PG&E,,CEC,SUBSTATION,308813,Murphy,115,95247,CA,Calaveras County,Unincorporated,-120.446419443914,38.146987072527
-13438416.3483,4607681.9195,76,PG&E,,CEC,SUBSTATION,307819,North Branch,60,95249,CA,Calaveras County,Unincorporated,-120.719348000414,38.1997469904355
-13443388.1524,4610067.3606,77,PG&E,,CEC,SUBSTATION,303253,Valley Springs,,95252,CA,Calaveras County,Unincorporated,-120.764010476423,38.2165850576775
-13587812.3174,4724175.696,78,PG&E,,CEC,SUBSTATION,303681,Arbuckle,60,95912,CA,Colusa County,Unincorporated,-122.061394824657,39.0174796788883
-13581261.7772,4752304.9018,79,PG&E,,CEC,SUBSTATION,306707,Colusa,60,95932,CA,Colusa County,Colusa,-122.002550321286,39.2135346733637
-13605839.4054,4738953.3101,80,PG&E,66X,CEC,SUBSTATION,300004,Cortina,,95987,CA,Colusa County,Unincorporated,-122.223334911058,39.1205447354015
-13585801.592,4717349.8641,81,PG&E,,CEC,SUBSTATION,302981,Drake,60,95912,CA,Colusa County,Unincorporated,-122.043332170732,38.969822765903
-13588822.381,4717264.1276,82,PG&E,,CEC,SUBSTATION,307397,Harrington,60,95912,CA,Colusa County,Unincorporated,-122.070468380733,38.9692239625332
-13598041.9162,4761421.7154,83,PG&E,,CEC,SUBSTATION,306085,Maxwell,60,95955,CA,Colusa County,Unincorporated,-122.153288873796,39.2769599631538
-13582454.4959,4779526.9454,84,PG&E,,CEC,SUBSTATION,304472,Rice,60,95970,CA,Colusa County,Unincorporated,-122.013264694823,39.4027471760554
-13597421.1074,4744255.4994,85,PG&E,,CEC,SUBSTATION,301442,Williams,60,95987,CA,Colusa County,Williams,-122.147712053487,39.1574876530818
-13083050.965,4040781.6807,86,SCE,,CEC,SUBSTATION,303308,Etiwanda,,91739,CA,San Bernardino County,Rancho Cucamonga,-117.527046447584,34.0891700631691
-13146859.4042,3998138.7466,87,SCE,,CEC,SUBSTATION,307039,Stadium,,90803,CA,Los Angeles County,Long Beach,-118.100247410054,33.7713325486698
-13595462.2759,4578567.4036,88,PG&E,,CEC,SUBSTATION,309944,Alhambra,115,94553,CA,Contra Costa County,Martinez,-122.130115571237,37.9939232223922
-13535019.1457,4553604.7081,89,PG&E,,CEC,SUBSTATION,308431,Byron Bethany,60,94514,CA,Contra Costa County,Unincorporated,-121.587145694383,37.8169893551706
-13553011.1948,4581026.484,90,Other,,CEC,SUBSTATION,303848,Du Pont,60,94561,CA,Contra Costa County,Oakley,-121.748771021185,38.0113299894265
-13533881.6865,4563474.0997,91,Other,,CEC,SUBSTATION,301537,Los Vaqueros,,94505,CA,Contra Costa County,Unincorporated,-121.576927724119,37.8869937708038
-13556613.4735,4581097.2685,92,Other,,CEC,SUBSTATION,307155,GWF 3,230,94509,CA,Contra Costa County,Antioch,-121.781130841512,38.0118309809875
-13553845.9355,4580909.167,93,PG&E,,CEC,SUBSTATION,302041,GWF 4,60,94509,CA,Contra Costa County,Antioch,-121.756269624994,38.0104996469356
-13564238.5343,4583155.7304,94,PG&E,,CEC,,,Linde,,94565,CA,Contra Costa County,Pittsburg,-121.84962792821,38.0263986651652
-13593869.3962,4581432.0019,95,Other,,CEC,SUBSTATION,303191,Shell Oil 1,115,94553,CA,Contra Costa County,Unincorporated,-122.115806489374,38.0142000781665
-13607184.451,4582110.779,96,Other,,CEC,SUBSTATION,305575,Union Chemical,60,94572,CA,Contra Costa County,Unincorporated,-122.235417661726,38.0190039319037
-13588924.3452,4568971.1751,97,Other,,CEC,SUBSTATION,302976,Walnut Creek Pp,,94597,CA,Contra Costa County,Walnut Creek,-122.071384340305,37.9259561559409
-13539000.0075,4556664.8928,98,Other,,CEC,,,Tres Vaqueros Wind Farm (Jv Ent),,94514,CA,Contra Costa County,Unincorporated,-121.622906384709,37.8387026090223
-13545163.7234,4568954.5013,99,PG&E,,CEC,SUBSTATION,308996,Balfour,60,94513,CA,Contra Costa County,Brentwood,-121.678275985902,37.9258380061679
-13585728.8608,4581204.6946,100,Other,,CEC,SUBSTATION,308223,Bollman,115,94520,CA,Contra Costa County,Unincorporated,-122.04267881544,38.0125913045506
-13544995.3211,4567997.6449,101,PG&E,,CEC,SUBSTATION,305606,Brentwood,,94513,CA,Contra Costa County,Unincorporated,-121.676763202789,37.9190574345377
-13560322.1594,4563228.388,102,Other,,CEC,SUBSTATION,300121,Briones,60,94517,CA,Contra Costa County,Unincorporated,-121.814446533982,37.8852517240271
-13604173.2961,4579830.128,103,PG&E,,CEC,SUBSTATION,300153,Christie,115,94553,CA,Contra Costa County,Unincorporated,-122.208367996692,38.002862018562
-13577538.9003,4571532.0601,104,PG&E,,CEC,SUBSTATION,303412,Clayton,115,94521,CA,Contra Costa County,Concord,-121.969107148625,37.944100251997
-13565761.7514,4583097.1719,105,Other,,CEC,SUBSTATION,307092,Columbia Steel,115,94565,CA,Contra Costa County,Pittsburg,-121.863311219667,38.0259842882497
-13560445.2187,4581335.6314,106,PG&E,,CEC,SUBSTATION,305643,Antioch,60,94509,CA,Contra Costa County,Antioch,-121.815551994177,38.0135180172301
-13556801.8546,4579362.9041,107,PG&E,,CEC,SUBSTATION,304763,Contra Costa,230,94509,CA,Contra Costa County,Antioch,-121.782823097568,37.9995546786926
-13564767.4968,4583281.3039,108,Other,,CEC,SUBSTATION,306032,Dow Chemical,,94565,CA,Contra Costa County,Pittsburg,-121.854379678941,38.0272872521143
-13601799.7276,4561917.2333,109,PG&E,,CEC,SUBSTATION,301921,East Portal,115,94563,CA,Contra Costa County,Orinda,-122.187045868115,37.8759552041017
-13614621.0985,4567601.8094,110,PG&E,,CEC,SUBSTATION,304175,El Cerrito Station G,115,94530,CA,Contra Costa County,El Cerrito,-122.302222202578,37.9162522425779
-13555810.6128,4581685.8054,111,PG&E,,CEC,SUBSTATION,304242,Fibreboard,115,94509,CA,Contra Costa County,Antioch,-121.773918620693,38.0159963372696
-13610402.9561,4581136.2674,112,PG&E,,CEC,SUBSTATION,306689,Franklin,60,94547,CA,Contra Costa County,Hercules,-122.264329984798,38.0121070021043
-13534910.0221,4553566.8173,113,PG&E,,CEC,SUBSTATION,303302,Herdlyn,60,94514,CA,Contra Costa County,Unincorporated,-121.586165420165,37.8167204646072
-13588464.7456,4579657.0076,114,PG&E,,CEC,SUBSTATION,303584,Imhoff,115,94553,CA,Contra Costa County,Unincorporated,-122.067255686718,38.0016365675187
-13570508.8345,4582363.0165,115,PG&E,East Bay,CEC,SUBSTATION,309545,Kirker,115,94565,CA,Contra Costa County,Pittsburg,-121.905954993399,38.0207889914656
-13587360.3639,4566495.3033,116,PG&E,,CEC,SUBSTATION,305570,Lakewood,115,94597,CA,Contra Costa County,Walnut Creek,-122.057334857148,37.9084101292426
-13550108.5088,4565713.0266,117,PG&E,,CEC,SUBSTATION,303575,Marsh,60,94513,CA,Contra Costa County,Brentwood,-121.722695749776,37.9028654142574
-13586794.668,4574234.6182,118,PG&E,,CEC,SUBSTATION,307646,Meadow Lane,115,94520,CA,Contra Costa County,Concord,-122.052253124879,37.963243256322
-13598881.597,4557942.2277,119,PG&E,East Bay,CEC,SUBSTATION,301876,Moraga,230,94563,CA,Contra Costa County,Orinda,-122.160831854805,37.8477639291833
-13569489.2604,4584628.8328,120,PG&E,East Bay,CEC,SUBSTATION,306987,Pittsburg,230,94565,CA,Contra Costa County,Pittsburg,-121.896796003178,38.0368219969436
-13619728.541,4578849.6853,121,PG&E,,CEC,SUBSTATION,302095,Point Pinole,115,94806,CA,Contra Costa County,Richmond,-122.348103139249,37.9959215829392
-13600803.4318,4584700.0682,122,Other,,CEC,SUBSTATION,303251,Port Costa Brick,60,94569,CA,Contra Costa County,Unincorporated,-122.178095990493,38.037326005011
-13566167.7943,4583093.1268,123,Other,,CEC,SUBSTATION,301740,Posco,,94565,CA,Contra Costa County,Pittsburg,-121.8669587654,38.0259556639865
-13589919.4229,4560323.597,124,PG&E,,CEC,SUBSTATION,309537,Rossmoor,230,94549,CA,Contra Costa County,Walnut Creek,-122.080323275875,37.8646542162563
-13577378.0751,4548733.9201,125,PG&E,,CEC,,,San Ramon Research Cntr.,230,94583,CA,Contra Costa County,Danville,-121.967662431613,37.7824159586659
-13618473.0935,4577348.8966,126,PG&E,,CEC,SUBSTATION,307126,San Pablo,,94806,CA,Contra Costa County,Richmond,-122.336825262541,37.9852964075059
-13573843.3887,4543426.6232,127,PG&E,East Bay,CEC,SUBSTATION,309611,San Ramon,230,94583,CA,Contra Costa County,San Ramon,-121.935909803562,37.7447257530459
-13604142.9139,4566078.8013,128,PG&E,,CEC,SUBSTATION,307001,Sobrante,230,94563,CA,Contra Costa County,Orinda,-122.208095069105,37.9054580481755
-13499562.3042,4755407.9186,129,PG&E,,CEC,SUBSTATION,309979,Narrows,60,95977,CA,Nevada County,Unincorporated,-121.268631468302,39.2351286694622
-13587863.7703,4582201.2519,130,PG&E,,CEC,SUBSTATION,309103,Tidewater,230,94553,CA,Contra Costa County,Unincorporated,-122.061857033496,38.0196442041148
-13607085.8803,4586973.295,131,PG&E,,CEC,SUBSTATION,308410,Unocal,,94525,CA,Contra Costa County,Unincorporated,-122.234532186104,38.0534078104891
-13592455.0264,4583516.9918,132,PG&E,,CEC,SUBSTATION,308825,Urich,60,94553,CA,Contra Costa County,Martinez,-122.103100988782,38.0289550044917
-13611994.1828,4574642.7848,133,PG&E,,CEC,SUBSTATION,301579,Valley View,115,94803,CA,Contra Costa County,Unincorporated,-122.27862421739,37.9661339847015
-13576633.444,4582925.6195,134,PG&E,,CEC,SUBSTATION,300160,Willow Pass,115,94565,CA,Contra Costa County,Unincorporated,-121.960973296009,38.0247703200609
-13826759.3057,5127045.4166,135,PCORP,,CEC,SUBSTATION,203296,Belmont,69,95531,CA,Del Norte County,Unincorporated,-124.207892141375,41.773060654714
-13819098.3452,5141176.3927,136,PCORP,,CEC,SUBSTATION,203292,Del Norte,115,95531,CA,Del Norte County,Unincorporated,-124.139072562797,41.8676618114726
-13799915.6289,5138275.9534,137,PCORP,,CEC,SUBSTATION,203293,Gasquet,115,95543,CA,Del Norte County,Unincorporated,-123.966751290358,41.848255945493
-13820090.6022,5138805.1186,138,PCORP,,CEC,SUBSTATION,203291,Lake Earl,,95531,CA,Del Norte County,Crescent City,-124.147986159052,41.8517968512378
-13814462.1451,5121052.7988,139,PCORP,,CEC,SUBSTATION,203301,Miller Redwood,69,95548,CA,Del Norte County,Unincorporated,-124.097424868424,41.7329003126277
-13825789.5327,5126000.7709,140,PCORP,,CEC,SUBSTATION,203298,Northcrest,69,95531,CA,Del Norte County,Crescent City,-124.199180522794,41.7660616281209
-13788551.6012,5143230.392,141,PCORP,,CEC,SUBSTATION,203306,Patrick'S Creek,115,95543,CA,Del Norte County,Unincorporated,-123.864666491901,41.8814008700706
-13821814.5422,5125217.4632,142,PCORP,,CEC,SUBSTATION,203295,Redwood,69,95531,CA,Del Norte County,Unincorporated,-124.163472575082,41.7608130402983
-13819137.4527,5149773.2576,143,PCORP,,CEC,SUBSTATION,203290,Simonson,,95567,CA,Del Norte County,Unincorporated,-124.139423870887,41.9251459539615
-13819265.6364,5143830.6913,144,PCORP,,CEC,SUBSTATION,203303,Smith River,,95567,CA,Del Norte County,Unincorporated,-124.140575364911,41.8854156725034
-13696202.3535,5127249.6385,145,PCORP,,CEC,SUBSTATION,203314,Steelhead,69,95568,CA,Siskiyou County,Unincorporated,-123.035079085659,41.7744288332248
-13809231.2463,5092821.6903,146,PCORP,,CEC,SUBSTATION,202983,Yurok,69,95548,CA,Del Norte County,Unincorporated,-124.050434904751,41.543367783621
-13356764.028,4704102.6066,147,Other,,CEC,SUBSTATION,309884,Meyers,,96150,CA,El Dorado County,Unincorporated,-119.985852727547,38.8772408894945
-13352021.8811,4711913.1225,148,Other,,CEC,,,Stateline,,96150,CA,El Dorado County,South Lake Tahoe,-119.943253296784,38.9318413118526
-13433720.5687,4684451.6905,149,PG&E,,CEC,,,Apple Hill,,95709,CA,El Dorado County,Unincorporated,-120.677165094886,38.7396829674102
-13050947.2438,4039496.3604,150,SCE,,CEC,SUBSTATION,302035,San Bernardino,,92408,CA,San Bernardino County,Redlands,-117.238653813617,34.0796073258406
-13450277.0846,4677850.1777,151,PG&E,,CEC,SUBSTATION,302248,Diamond Springs,115,95667,CA,El Dorado County,Unincorporated,-120.825894807298,38.6934122861058
-13427570.8755,4692435.9496,152,PG&E,SMUD,CEC,,,El Dorado,230,95726,CA,El Dorado County,Unincorporated,-120.621921461011,38.7956054290149
-13477132.5574,4705200.7882,153,PG&E,,CEC,SUBSTATION,303272,Flint,,95603,CA,Placer County,Auburn,-121.067141624099,38.8849204072515
-13467452.344,4669512.9351,154,PG&E,,CEC,SUBSTATION,310069,Limestone,,95682,CA,El Dorado County,Unincorporated,-120.980182787681,38.634932901836
-13471771.475,4709369.7242,155,PG&E,,CEC,SUBSTATION,303981,Mt. Quarries,60,95614,CA,El Dorado County,Unincorporated,-121.018982201925,38.9140659675594
-13480213.811,4698044.0703,156,PG&E,,CEC,SUBSTATION,306130,Newcastle,115,95658,CA,Placer County,Unincorporated,-121.094820996108,38.8348589936507
-13445595.4099,4683198.0879,157,PG&E,,CEC,SUBSTATION,304255,Placerville,115,95667,CA,El Dorado County,Placerville,-120.783838608274,38.7308986421241
-13463784.9591,4672985.7272,158,PG&E,,CEC,SUBSTATION,306505,Shingle Springs,,95682,CA,El Dorado County,Unincorporated,-120.947238108526,38.6592976874165
-13476286.764,4672475.4121,159,PG&E,,CEC,SUBSTATION,303839,Clarksville,,95762,CA,El Dorado County,Unincorporated,-121.059543733199,38.6557178829365
-12766172.3445,3976722.2031,160,Other,,CEC,SUBSTATION,304454,Blythe Walc,161,92225,CA,Riverside County,Blythe,-114.680477367252,33.6112583721703
-13400857.8675,4700249.3327,161,SMUD,,CEC,SUBSTATION,307578,Jones Fork,,00051,CA,El Dorado County,Unincorporated,-120.381954427227,38.8502886139595
-13427280.2769,4692117.7578,162,PG&E,SMUD,CEC,SUBSTATION,308707,Camino,,95726,CA,El Dorado County,Unincorporated,-120.619310968734,38.7933776242048
-13407636.8939,4702128.2193,163,SMUD,SMUD,CEC,SUBSTATION,300800,Union Valley,230,00051,CA,El Dorado County,Unincorporated,-120.442851457191,38.863432031407
-13311789.7885,4375286.7047,164,Other,,CEC,SUBSTATION,309725,Guardian and Eastbank,115,93631,CA,Fresno County,Kingsburg,-119.5818422598,36.540761385414
-13324592.8922,4405391.3839,165,Other,,CEC,SUBSTATION,308967,Las Palmas,115,93727,CA,Fresno County,Unincorporated,-119.696854497361,36.7577323345081
-13352445.6035,4344668.3887,166,Other,,CEC,SUBSTATION,300523,Mussel Slough,60,93245,CA,Kings County,Unincorporated,-119.947059659761,36.3194622396774
-13399382.7888,4333383.945,167,Other,,CEC,,,Cal Resources LLC,60,93210,CA,Fresno County,Unincorporated,-120.368703569079,36.2377429924519
-13436466.1197,4399468.5296,168,PG&E,15,CEC,SUBSTATION,306180,Oxford,500,93640,CA,Fresno County,Unincorporated,-120.70182879867,36.7150933542103
-13400803.2603,4331565.9419,169,Other,,CEC,SUBSTATION,310397,Penn Zier,60,93210,CA,Fresno County,Unincorporated,-120.381463881625,36.2245694479161
-13331008.731,4397451.5387,170,PG&E,,CEC,SUBSTATION,304977,Ranchers Cotton,115,93725,CA,Fresno County,Unincorporated,-119.75448895788,36.7005675109376
-13333163.2116,4425575.3603,171,PG&E,,CEC,SUBSTATION,304800,River Rock,60,93730,CA,Fresno County,Unincorporated,-119.773842986756,36.902860005965
-13397887.5597,4327113.249,172,Other,,CEC,SUBSTATION,303884,Tornado,60,93210,CA,Fresno County,Unincorporated,-120.355271697929,36.1922951422699
-13396444.9155,4387993.6348,173,PG&E,,CEC,SUBSTATION,302217,Westlands,60,93668,CA,Fresno County,Unincorporated,-120.342312204986,36.6324175383226
-13412358.1424,4373529.0409,174,Other,,CEC,SUBSTATION,310526,Kamm,,93640,CA,Fresno County,Unincorporated,-120.48526315419,36.5280746425166
-13369450.9904,4385951.6396,175,Other,,CEC,SUBSTATION,302267,Agrico,60,93630,CA,Fresno County,Unincorporated,-120.099821650042,36.6176957959939
-13328829.3011,4406296.0169,176,PG&E,,CEC,SUBSTATION,304283,Barton,115,93727,CA,Fresno County,Fresno,-119.734910805788,36.7642427563489
-13371045.6371,4410256.6379,177,PG&E,,CEC,SUBSTATION,303612,Biola,70,93630,CA,Fresno County,Unincorporated,-120.114146604467,36.7927398668603
-13332565.7488,4414585.8794,178,PG&E,,CEC,SUBSTATION,305986,Bullard,115,93710,CA,Fresno County,Fresno,-119.76847588716,36.8238771208192
-13371928.2242,4339771.1859,179,Other,,CEC,SUBSTATION,306230,Calflax,60,93234,CA,Fresno County,Unincorporated,-120.12207501987,36.2840083739287
-13335959.961,4362163.1775,180,PG&E,,CEC,SUBSTATION,300661,Camden,60,93656,CA,Fresno County,Unincorporated,-119.798966613744,36.4459860909606
-13396371.8402,4359856.1929,181,PG&E,,CEC,SUBSTATION,303854,Cantua,115,93210,CA,Fresno County,Unincorporated,-120.341655758022,36.429313560641
-13408383.3254,4416284.7852,182,PG&E,,CEC,SUBSTATION,304454,Capco Madera,60,93622,CA,Fresno County,Firebaugh,-120.449556765791,36.8360927211569
-13345144.1348,4374096.3186,183,PG&E,,CEC,SUBSTATION,309247,Caruthers,,93609,CA,Fresno County,Unincorporated,-119.881469450265,36.5321694559588
-13417560.1458,4388041.1019,184,PG&E,,CEC,SUBSTATION,304203,Cheney,,93640,CA,Fresno County,Unincorporated,-120.531993545558,36.6327597181749
-13322856.2316,4414908.6537,185,PG&E,,CEC,SUBSTATION,305589,Clovis,115,93611,CA,Fresno County,Clovis,-119.681253809585,36.8261981070358
-13321014.1812,4424594.3474,186,PG&E,H15,CEC,SUBSTATION,302915,Coppermine,115,93619,CA,Fresno County,Unincorporated,-119.664706389389,36.8958126531349
-13395952.466,4331832.7664,187,Other,,CEC,SUBSTATION,302287,Derrick,,93210,CA,Fresno County,Unincorporated,-120.337888455606,36.2265030401059
-13293665.9851,4379362.1096,188,Other,,CEC,SUBSTATION,305901,Dinuba Energy,60,93654,CA,Tulare County,Unincorporated,-119.419033363822,36.5701694777454
-13250242.724,4398671.3734,189,PG&E,,CEC,SUBSTATION,307630,Dunlap,60,93641,CA,Fresno County,Unincorporated,-119.028955572819,36.7093527710918
-13342634.8243,4414313.529,190,PG&E,,CEC,SUBSTATION,304773,Fig Garden,,93711,CA,Fresno County,Fresno,-119.858927931298,36.8219186650183
-13410255.2255,4418300.1331,191,PG&E,,CEC,SUBSTATION,307163,Firebaugh,60,93622,CA,Fresno County,Unincorporated,-120.466372330496,36.8505810975019
-13372305.4456,4319936.0645,192,PG&E,15,CEC,SUBSTATION,309714,Gates,,93234,CA,Fresno County,Unincorporated,-120.125463657224,36.1402449848385
-13395605.9458,4375893.8986,193,PG&E,,CEC,SUBSTATION,303660,Giffen,60,93608,CA,Fresno County,Unincorporated,-120.334775611371,36.5451436018585
-13425499.1449,4400182.5964,194,PG&E,,CEC,SUBSTATION,304973,Hammonds,115,93622,CA,Fresno County,Unincorporated,-120.603310788261,36.7202352185997
-13377953.2521,4382308.4713,195,PG&E,,CEC,SUBSTATION,303306,Helm,230,93660,CA,Fresno County,Unincorporated,-120.176198766041,36.5914234316902
-13349670.9727,4417484.5049,196,PG&E,15,CEC,SUBSTATION,302888,Herndon,230,93722,CA,Fresno County,Fresno,-119.922134727871,36.8447178605385
-13369906.2284,4326253.7751,197,PG&E,,CEC,SUBSTATION,304055,Huron,115,93234,CA,Fresno County,Unincorporated,-120.10391112178,36.1860639141119
-13365027.3039,4396197.5194,198,PG&E,,CEC,SUBSTATION,310472,Kerman,60,93630,CA,Fresno County,Unincorporated,-120.060082997872,36.6915350070099
-13345299.4893,4398153.462,199,PG&E,,CEC,SUBSTATION,301827,Kearney (New),230,93706,CA,Fresno County,Unincorporated,-119.882865024226,36.7056228915969
-13344983.1165,4398316.0727,200,PG&E,,CEC,SUBSTATION,305853,Kearney (Old),60,93706,CA,Fresno County,Unincorporated,-119.880022999056,36.7067939959709
-13264772.032,4423544.2298,201,PG&E,H5,CEC,SUBSTATION,304409,Kings River,,93664,CA,Fresno County,Unincorporated,-119.159474567276,36.8882681470766
-13311861.9187,4368038.6907,202,PG&E,,CEC,SUBSTATION,301616,Kingsburg,115,93631,CA,Fresno County,Unincorporated,-119.582490216216,36.4884321233516
-13327896.797,4396436.3042,203,PG&E,,CEC,SUBSTATION,307652,Malaga,115,93725,CA,Fresno County,Unincorporated,-119.72653397904,36.693255018034
-13334725.6788,4409605.4624,204,PG&E,,CEC,SUBSTATION,300176,Manchester,115,93726,CA,Fresno County,Fresno,-119.787878867811,36.7880553143346
-13318176.0067,4384999.3074,205,PG&E,H5,CEC,SUBSTATION,308822,McCall,230,93625,CA,Fresno County,Unincorporated,-119.639210634569,36.6108290059788
-13357081.9166,4382578.2415,206,PG&E,,CEC,SUBSTATION,304647,Mc Mullin,230,93706,CA,Fresno County,Unincorporated,-119.988708369542,36.5933691606501
-13409429.5439,4400232.7442,207,PG&E,,CEC,SUBSTATION,309412,Mendota,115,93640,CA,Fresno County,Unincorporated,-120.458955105847,36.7205963108043
-13399011.722,4405184.1028,208,Other,,CEC,SUBSTATION,310154,Mendota Biomass,60,93640,CA,Fresno County,Mendota,-120.365370219954,36.7562405054967
-13431243.8146,4423333.0116,209,PG&E,,CEC,SUBSTATION,306702,Oro Loma,115,93622,CA,Fresno County,Unincorporated,-120.654916033819,36.8867505732852
-13333103.5437,4384276.8077,210,PG&E,,CEC,SUBSTATION,302316,Bowles,60,93725,CA,Fresno County,Unincorporated,-119.77330698068,36.6056190151958
-13423099.6841,4390923.6102,211,PG&E,,CEC,SUBSTATION,307408,Panoche,230,93622,CA,Fresno County,Unincorporated,-120.581756064994,36.6535362516183
-13305051.3776,4384545.0703,212,PG&E,,CEC,SUBSTATION,301266,Parlier,,93648,CA,Fresno County,Parlier,-119.521310084953,36.6075535144522
-13291926.0908,4409868.9348,213,Other,H5,CEC,,,Piedra,,93657,CA,Fresno County,Unincorporated,-119.403403627933,36.7899507672005
-13306921.9684,4398792.1045,214,PG&E,,CEC,SUBSTATION,301252,Rainbow,,93657,CA,Fresno County,Unincorporated,-119.538113888084,36.7102222230394
-13288898.7291,4384100.4444,215,PG&E,,CEC,SUBSTATION,308378,Reedley,115,93654,CA,Fresno County,Unincorporated,-119.376208375053,36.6043471951037
-13378192.8713,4386401.0626,216,PG&E,,CEC,SUBSTATION,302873,San Joaquin,60,93660,CA,Fresno County,Unincorporated,-120.178351301691,36.6209361474255
-13264885.9725,4389709.6996,217,PG&E,,CEC,SUBSTATION,309016,Sand Creek,60,93647,CA,Tulare County,Unincorporated,-119.160498112,36.6447873139759
-13315024.4884,4398375.6722,218,PG&E,H5,CEC,SUBSTATION,303753,Sanger,115,93657,CA,Fresno County,Unincorporated,-119.610900063909,36.7072232208093
-13373781.38,4356070.1888,219,PG&E,,CEC,SUBSTATION,304309,Schindler,115,93234,CA,Fresno County,Unincorporated,-120.138722201305,36.4019444249082
-13369972.503,4373946.4458,220,PG&E,,CEC,SUBSTATION,304332,Stroud,60,93627,CA,Fresno County,Unincorporated,-120.104506476724,36.5310876419217
-13290802.8052,4407172.3532,221,PG&E,,CEC,SUBSTATION,310134,Tivy Valley,,93657,CA,Fresno County,Unincorporated,-119.393312981145,36.770549006332
-13327390.295,4395642.6479,222,Other,,CEC,SUBSTATION,303835,Air Products,115,93725,CA,Fresno County,Unincorporated,-119.721983994078,36.6875380159111
-13297403.5752,4385631.9454,223,PG&E,,CEC,SUBSTATION,305874,Wahtoke,115,93654,CA,Fresno County,Reedley,-119.452608706806,36.615390709939
-13395563.6226,4391970.8379,224,WAPA,,CEC,SUBSTATION,309374,Wesix,60,93668,CA,Fresno County,Unincorporated,-120.33439541604,36.6610830678349
-13338190.5656,4399896.2969,225,PG&E,,CEC,SUBSTATION,309459,West Fresno,115,93706,CA,Fresno County,Fresno,-119.819004475512,36.718173669801
-13389428.0332,4355682.3096,226,Other,,CEC,SUBSTATION,305840,Westlands 16Ra,115,93210,CA,Fresno County,Unincorporated,-120.279278478808,36.3991398906154
-13386303.0367,4349836.1567,227,Other,,CEC,SUBSTATION,305020,Westlands 18Ra,60,93210,CA,Fresno County,Unincorporated,-120.251206157473,36.3568574132416
-13330620.4511,4424658.9855,228,PG&E,,CEC,SUBSTATION,302044,Woodward,115,93730,CA,Fresno County,Fresno,-119.751000979894,36.8962770171285
-13273776.944,4467604.9892,229,SCE,H6,CEC,,,Camp 10,230,93664,CA,Fresno County,Unincorporated,-119.240367067983,37.2041785767725
-13268649.7919,4473378.1667,230,SCE,H6,CEC,SUBSTATION,302844,Line Creek,33,93634,CA,Fresno County,Unincorporated,-119.194309076639,37.2454740906179
-13264732.3014,4474988.8349,231,SCE,H6,CEC,SUBSTATION,308838,Portal,33,93664,CA,Fresno County,Unincorporated,-119.159117660921,37.2569911586246
-13273830.2999,4467781.115,232,SCE,H6,CEC,,,Pitman,230,93664,CA,Fresno County,Unincorporated,-119.240846371832,37.2054387383062
-13427391.194,4416277.997,233,PG&E,,CEC,SUBSTATION,307108,De Francesco,,93622,CA,Fresno County,Unincorporated,-120.620307354302,36.8360439157538
-13374794.0691,4321628.3814,234,PG&E,,CEC,SUBSTATION,301242,Gates Wellhead,60,93234,CA,Fresno County,Unincorporated,-120.147819342554,36.1525210673767
-13582143.6051,4805497.7662,235,PG&E,,CEC,SUBSTATION,301251,Jacinto,60,95943,CA,Glenn County,Unincorporated,-122.010471916102,39.5827856365871
-13592534.0578,4833439.1276,236,PG&E,,CEC,SUBSTATION,308466,Capay,60,95963,CA,Glenn County,Unincorporated,-122.103810940026,39.7759635810324
-13641414.3851,4806960.7559,237,PG&E,,CEC,SUBSTATION,310114,Elk Creek,60,95939,CA,Glenn County,Unincorporated,-122.542910391499,39.592913698156
-13596885.8834,4833721.498,238,PG&E,,CEC,SUBSTATION,305750,Glenn,230,95963,CA,Glenn County,Unincorporated,-122.142904054826,39.7779130443667
-13586689.72,4835367.9846,239,PG&E,,CEC,SUBSTATION,303881,Headgate,60,95963,CA,Glenn County,Unincorporated,-122.051310360754,39.7892791602252
-13610260.564,4799249.2171,240,PG&E,,CEC,SUBSTATION,306883,Logan Creek,230,95988,CA,Glenn County,Unincorporated,-122.263050854464,39.5395111907149
-13600875.2353,4826088.501,241,PG&E,,CEC,SUBSTATION,302830,Orland B,60,95963,CA,Glenn County,Unincorporated,-122.178741012564,39.725196000274
-13581501.4947,4801884.9859,242,PG&E,,CEC,,,Provident,60,95943,CA,Glenn County,Unincorporated,-122.004703739388,39.5577685503603
-13601697.0987,4798118.2826,243,PG&E,,CEC,SUBSTATION,306643,Willows A,60,95988,CA,Glenn County,Unincorporated,-122.186123937436,39.5316759967068
-13640328.6388,4806112.7163,244,PG&E,,CEC,SUBSTATION,310479,Stony Gorge,,95939,CA,Glenn County,Unincorporated,-122.533156966536,39.5870430255531
-13803019.4354,4994353.6484,245,PG&E,,CEC,SUBSTATION,308230,Ultra Power,60,95521,CA,Humboldt County,Blue Lake,-123.994633258304,40.8779343646748
-13813460.204,4992755.8914,246,PG&E,,CEC,SUBSTATION,304334,Arcata,60,95521,CA,Humboldt County,Arcata,-124.088424278134,40.8670811711018
-13814972.1556,5036371.7576,247,PG&E,,CEC,SUBSTATION,300001,Big Lagoon,60,95570,CA,Humboldt County,Unincorporated,-124.102006370288,41.1627147448637
-13807442.8199,4998463.5742,248,Other,,CEC,SUBSTATION,310198,Blue Chip Milling,60,95519,CA,Humboldt County,Unincorporated,-124.034369197419,40.9058439650987
-13801456.228,4994633.375,249,PG&E,,CEC,SUBSTATION,307572,Blue Lake,60,95525,CA,Humboldt County,Unincorporated,-123.980590726979,40.8798342997434
-13779161.0592,4935889.9032,250,PG&E,,CEC,SUBSTATION,306209,Bridgeville,115,95526,CA,Humboldt County,Unincorporated,-123.780309818456,40.4796459701762
-13810715.4013,4944894.7207,251,PG&E,,CEC,SUBSTATION,302794,Carlotta,60,95547,CA,Humboldt County,Unincorporated,-124.063767295721,40.5411469235911
-13827008.738,4953904.1344,252,PG&E,,CEC,SUBSTATION,301875,Eel River,60,95536,CA,Humboldt County,Unincorporated,-124.21013282988,40.6026228132159
-13825468.1884,4982954.997,253,PG&E,,CEC,SUBSTATION,305866,Fairhaven,60,95564,CA,Humboldt County,Unincorporated,-124.196293837455,40.8004670394512
-13825457.325,4983757.0062,254,Other,,CEC,SUBSTATION,306783,Lousiana Pacific,60,95564,CA,Humboldt County,Unincorporated,-124.196196250006,40.8059206017754
-13758686.5747,4897056.5762,255,PG&E,,CEC,SUBSTATION,309820,Fort Seward,60,95511,CA,Humboldt County,Unincorporated,-123.596384394742,40.2137770140956
-13785506.0353,4907567.381,256,PG&E,,CEC,SUBSTATION,302998,Fruitland,60,95554,CA,Humboldt County,Unincorporated,-123.837307708129,40.2858417415686
-13780560.0776,4880922.4111,257,PG&E,,CEC,SUBSTATION,301728,Garberville,60,95542,CA,Humboldt County,Unincorporated,-123.792877414778,40.1030078598229
-13818294.7144,4980080.1253,258,PG&E,,CEC,SUBSTATION,305752,Harris,60,95503,CA,Humboldt County,Unincorporated,-124.13185342405,40.7809145891245
-13768229.3851,5020673.8668,259,PG&E,,CEC,SUBSTATION,300663,Hoopa,60,95546,CA,Humboldt County,Unincorporated,-123.682108918897,41.0564653893721
-13816126.9453,4980325.6368,260,PG&E,,CEC,SUBSTATION,303673,Humboldt,115,95503,CA,Humboldt County,Unincorporated,-124.11238002278,40.7825845756075
-13826955.6489,4974114.8219,261,PG&E,,CEC,SUBSTATION,310336,Humboldt Bay,,95503,CA,Humboldt County,Unincorporated,-124.209655922442,40.7403252642439
-13811670.4879,4998359.5676,262,PG&E,,CEC,SUBSTATION,307372,Janes Creek,60,95521,CA,Humboldt County,Arcata,-124.07234698515,40.9051378243727
-13820575.5497,4992560.1421,263,Other,,CEC,SUBSTATION,304968,Sierra Pacific Lumber,60,95521,CA,Humboldt County,Unincorporated,-124.152342515837,40.8657513693892
-13789557.2297,4978166.8783,264,PG&E,,CEC,SUBSTATION,310450,Maple Creek,,95550,CA,Humboldt County,Unincorporated,-123.873700206482,40.7678991070624
-13818668.0557,4952726.8765,265,PG&E,,CEC,SUBSTATION,309670,Newburg,60,95540,CA,Humboldt County,Fortuna,-124.135207206331,40.5945929815603
-13541086.6504,4551374.3455,266,Other,,CEC,SUBSTATION,303676,Windmaster,230,94514,CA,Contra Costa County,Unincorporated,-121.641651016659,37.8011600009716
-13815194.0928,4936076.867,267,Other,,CEC,SUBSTATION,302363,Pacific Lumber,60,95565,CA,Humboldt County,Unincorporated,-124.104000066082,40.4809234655735
-13766856.7702,4972439.1667,268,PG&E,,CEC,,,Ridge Cabin,,95550,CA,Humboldt County,Unincorporated,-123.66977850927,40.7289192546992
-13814667.3282,4938194.2923,269,PG&E,,CEC,SUBSTATION,308528,Rio Dell,60,95562,CA,Humboldt County,Rio Dell,-124.099268059257,40.4953898181704
-13784496.3494,4985901.047,270,PG&E,,CEC,SUBSTATION,308615,Russ Ranch,60,95550,CA,Humboldt County,Unincorporated,-123.828237545932,40.8204976111274
-13483089.3078,4541817.5518,271,Other,,CEC,SUBSTATION,303204,Mrip,,95366,CA,San Joaquin County,Ripon,-121.120652023319,37.7332950063869
-13817912.868,5021895.0335,272,PG&E,,CEC,SUBSTATION,300777,Trinidad,60,95570,CA,Humboldt County,Unincorporated,-124.128423239171,41.0647368816441
-13763553.6594,5004656.4083,273,PG&E,,CEC,SUBSTATION,309847,Willow Creek,60,95573,CA,Humboldt County,Unincorporated,-123.640106160747,40.9478758994312
-12859503.8918,3895168.4558,274,IID,,CEC,SUBSTATION,309842,Alamorio,92,92227,CA,Imperial County,Brawley,-115.518888921939,32.9989790922754
-12910671.5397,3911951.3825,275,IID,,CEC,SUBSTATION,303931,Anza,92,92274,CA,Imperial County,Unincorporated,-115.978535723488,33.1253308860537
-12754385.0933,3866337.4877,276,IID,,CEC,SUBSTATION,304974,Bard,,92283,CA,Imperial County,Unincorporated,-114.574590688485,32.7814997084681
-12743864.3092,3882370.4717,277,IID,,CEC,SUBSTATION,304064,Barret,,92283,CA,Imperial County,Unincorporated,-114.480080876734,32.9025065113901
-12878414.5896,3946513.3078,278,IID,,CEC,SUBSTATION,303610,Bombay,92,92257,CA,Imperial County,Unincorporated,-115.68876661085,33.384961174635
-12857431.4428,3851465.7068,279,IID,,CEC,SUBSTATION,309012,Calexico,,92231,CA,Imperial County,Calexico,-115.500271795517,32.6691095906929
-12858530.7936,3912114.9188,280,IID,,CEC,SUBSTATION,309726,Calipatria,92,92233,CA,Imperial County,Calipatria,-115.510147432092,33.1265611910328
-12866082.1353,3871159.9869,281,IID,,CEC,SUBSTATION,306347,Central,,92243,CA,Imperial County,El Centro,-115.577982288901,32.8179142211132
-12866065.598,3866279.0663,282,IID,,CEC,SUBSTATION,303532,Dahlia,92,92243,CA,Imperial County,El Centro,-115.577833731445,32.7810584797539
-12918710.3874,3950092.6992,283,IID,,CEC,SUBSTATION,306917,Desert Shores,92,92274,CA,Imperial County,Unincorporated,-116.05074992149,33.4118055552231
-12888394.7646,3867961.1356,284,IID,,CEC,SUBSTATION,304440,Dixieland,92,92274,CA,Imperial County,Unincorporated,-115.778420047724,32.7937614794048
-12861536.3833,3869097.3911,285,IID,46,CEC,SUBSTATION,301611,El Centro,230,92243,CA,Imperial County,El Centro,-115.537147103654,32.8023414621793
-12866206.8675,3868738.7392,286,IID,,CEC,SUBSTATION,305657,Euclid,92,92251,CA,Imperial County,Unincorporated,-115.579102776984,32.7996333342183
-12799975.9218,3902420.7212,287,IID,,CEC,SUBSTATION,304184,Goldfields,92,92283,CA,Imperial County,Unincorporated,-114.984140069096,33.053600687368
-12788850.026,3901548.5172,288,IID,,CEC,SUBSTATION,304348,Goldmine,,92283,CA,Imperial County,Unincorporated,-114.884194446243,33.0470333341259
-12861247.9851,3857506.8911,289,IID,,CEC,SUBSTATION,301306,Heber,92,92243,CA,Imperial County,Unincorporated,-115.53455637843,32.7147815581549
-12832210.9075,3864853.7461,290,IID,,CEC,SUBSTATION,300726,Highline,230,92250,CA,Imperial County,Unincorporated,-115.273711872837,32.7702930306371
-12864984.7707,3883628.996,291,IID,,CEC,SUBSTATION,303539,Holly Sugar,,92251,CA,Imperial County,Unincorporated,-115.568124494429,32.9119980697043
-12844932.7853,3870431.4327,292,IID,,CEC,SUBSTATION,301784,Holtville,,92250,CA,Imperial County,Holtville,-115.387994445345,32.8124138923789
-12864497.1948,3876226.5982,293,IID,,CEC,SUBSTATION,310188,Imperial Valley,,92251,CA,Imperial County,Imperial,-115.563744525711,32.8561559444842
-12881408.5138,3857925.81,294,SDG&E,"Southwest Powerlink, 45, 46",CEC,SUBSTATION,300666,Imperial Valley,,92274,CA,Imperial County,Unincorporated,-115.715661489296,32.7179477614166
-13182796.3994,4016514.8591,295,SCE,,CEC,SUBSTATION,309703,El Segundo,,90245,CA,Los Angeles County,El Segundo,-118.423074930054,33.9084436389841
-12800264.8328,3898937.5314,296,IID,,CEC,SUBSTATION,302992,Mesquite,,92283,CA,Imperial County,Unincorporated,-114.986735400456,33.0273707119777
-12850106.8954,3920864.8166,297,IID,,CEC,SUBSTATION,310447,Midway,230,92233,CA,Imperial County,Unincorporated,-115.434474267166,33.1923626913171
-12756109.7994,3862556.4463,298,IID,,CEC,SUBSTATION,308891,No Mans Land,,92283,CA,Imperial County,Unincorporated,-114.59008398751,32.752938776563
-12805210.6957,3856373.4561,299,IID,,CEC,SUBSTATION,310380,Drop 2,,92283,CA,Imperial County,Unincorporated,-115.031164843236,32.7062144549127
-12795347.4325,3857025.9681,300,IID,,CEC,SUBSTATION,308885,Sand Hill,,92283,CA,Imperial County,Unincorporated,-114.942561642262,32.7111465874936
-12769753.2524,3860390.4452,301,IID,,CEC,SUBSTATION,300301,Araz,161,92283,CA,Imperial County,Unincorporated,-114.712645210534,32.7365732808417
-12877486.0058,3870297.8767,302,IID,,CEC,SUBSTATION,310007,Navy Base,92,92243,CA,Imperial County,Unincorporated,-115.680425000242,32.8114055540012
-12857525.9805,3927506.5196,303,IID,,CEC,SUBSTATION,301669,Niland,161,92233,CA,Imperial County,Unincorporated,-115.501121042062,33.2422770419117
-12862184.8336,3893574.8728,304,IID,,CEC,SUBSTATION,309476,Oakley,,92227,CA,Imperial County,Brawley,-115.542972232336,32.9869722327751
-12856372.4073,3853845.3563,305,IID,,CEC,SUBSTATION,307585,Perry,92,92231,CA,Imperial County,Calexico,-115.490758318005,32.6871027718258
-12773762.0341,3863539.8741,306,WAPA,,CEC,SUBSTATION,307389,Knob,,92283,CA,Imperial County,Unincorporated,-114.748656708929,32.7603681978737
-12897231.4156,3867707.4894,307,IID,,CEC,SUBSTATION,300850,Plaster City,,92259,CA,Imperial County,Unincorporated,-115.857801034166,32.7918460576557
-12858352.3489,3853696.9253,308,IID,,CEC,SUBSTATION,306205,Pruett,,92231,CA,Imperial County,Unincorporated,-115.508544435964,32.6859805505376
-12861210.3413,3891375.2696,309,IID,,CEC,SUBSTATION,300430,Rio Vista,92,92227,CA,Imperial County,Brawley,-115.534218218257,32.9703966269564
-12909702.7939,3933232.8044,310,IID,,CEC,SUBSTATION,308892,Salton City,92,92274,CA,Imperial County,Unincorporated,-115.969833332109,33.285288890206
-12879071.3579,3867660.2682,311,IID,,CEC,SUBSTATION,302005,Seeley,92,92273,CA,Imperial County,Unincorporated,-115.694666460407,32.7914894593966
-12872726.7884,3862525.5763,312,IID,,CEC,SUBSTATION,310226,Silsbee,,92243,CA,Imperial County,Unincorporated,-115.637672222772,32.7527055559141
-12884500.371,3879469.2587,313,IID,,CEC,SUBSTATION,300759,Superstition,92,92251,CA,Imperial County,Unincorporated,-115.743436114962,32.8806222207965
-12861190.0098,3863399.0093,314,IID,,CEC,SUBSTATION,304392,Valley,92,92243,CA,Imperial County,Unincorporated,-115.534035577442,32.7593040563486
-12833267.1864,3855472.3742,315,IID,,CEC,SUBSTATION,304369,Verde,,92250,CA,Imperial County,Unincorporated,-115.283200587775,32.6994030128458
-12870647.3437,3900362.2443,316,IID,,CEC,SUBSTATION,304586,Westmorland,,92281,CA,Imperial County,Westmorland,-115.618992253564,33.0381003805139
-12760939.1365,3860693.5869,317,IID,,CEC,SUBSTATION,304614,Winterhaven,,92283,CA,Imperial County,Unincorporated,-114.633466660691,32.7388638873002
-13133429.4632,4491420.1185,318,SCE,,CEC,SUBSTATION,307164,Deep Springs,,93513,CA,Inyo County,Unincorporated,-117.979604196978,37.3743822705561
-13130852.5675,4315752.8504,319,SCE,,CEC,SUBSTATION,300467,Haiwee,,93555,CA,Inyo County,Unincorporated,-117.956455548827,36.109891666571
-13143770.6742,4383596.2004,320,SCE,,CEC,SUBSTATION,300486,Lone Pine,,93545,CA,Inyo County,Unincorporated,-118.072500875927,36.600710790935
-13213834.4528,4489372.0984,321,SCE,L1,CEC,SUBSTATION,304421,Morgan,,93514,CA,Inyo County,Unincorporated,-118.701894508134,37.3597604670478
-13187502.7248,4487978.0975,322,SCE,52,CEC,SUBSTATION,300630,Mt. Tom,,93514,CA,Inyo County,Unincorporated,-118.465352570719,37.3498063924223
-13174721.4521,4495107.3783,323,SCE,52,CEC,SUBSTATION,306686,Roberts,,93514,CA,Inyo County,Unincorporated,-118.35053644438,37.400700212743
-13359585.1852,4261010.3051,324,PG&E,,CEC,SUBSTATION,303384,Berrenda A,70,93249,CA,Kern County,Unincorporated,-120.011195613261,35.7116007951713
-13363062.1519,4253732.8711,325,PG&E,,CEC,SUBSTATION,300599,Berrenda C,70,93249,CA,Kern County,Unincorporated,-120.042429736734,35.6585014539984
-13235995.4289,4147655.3847,326,Other,,CEC,SUBSTATION,310488,Castaic,70,93243,CA,Kern County,Unincorporated,-118.900969942847,34.8805145795548
-13260190.6013,4228041.8003,327,PG&E,,CEC,SUBSTATION,309030,Cawelo B,70,93308,CA,Kern County,Unincorporated,-119.11831887459,35.4707657976604
-13259867.9082,4241717.8874,328,PG&E,,CEC,SUBSTATION,300633,Cawelo C,115,93308,CA,Kern County,Unincorporated,-119.115420073292,35.5707575716962
-13254352.2008,4172439.1509,329,Other,,CEC,SUBSTATION,301591,Emidio Mobil,70,93313,CA,Kern County,Unincorporated,-119.065871631209,35.0629504362221
-13250959.334,4218517.6979,330,PG&E,,CEC,SUBSTATION,306377,Kernwater,,93308,CA,Kern County,Unincorporated,-119.035392989861,35.4010574285749
-13229681.4185,4157755.8476,331,SCE,,CEC,SUBSTATION,306358,Lebec,,93560,CA,Kern County,Unincorporated,-118.844250222539,34.9549141776336
-13343453.6403,4271178.3234,332,PG&E,,CEC,SUBSTATION,301793,Lost Hills,60,93249,CA,Kern County,Unincorporated,-119.866283479829,35.7857318939812
-13246150.1849,4225836.544,333,PG&E,,CEC,SUBSTATION,304929,Petrol,115,93308,CA,Kern County,Unincorporated,-118.992191668494,35.454630556968
-13253901.9309,4172583.8189,334,PG&E,,CEC,SUBSTATION,309576,Valpredo,70,93313,CA,Kern County,Unincorporated,-119.061826787199,35.0640141586153
-13238703.787,4153883.3478,335,Other,,CEC,SUBSTATION,306710,Pacific Pipeline,70,93243,CA,Kern County,Unincorporated,-118.925299537482,34.9263974736459
-13357941.9824,4253650.632,336,PG&E,,CEC,SUBSTATION,303111,Antelope,70,93249,CA,Kern County,Unincorporated,-119.996434471425,35.6579011990992
-13348721.3174,4269777.3992,337,PG&E,,CEC,SUBSTATION,306367,Arco,230,93249,CA,Kern County,Unincorporated,-119.91360382886,35.7755223973622
-13233490.4524,4184327.0963,338,PG&E,,CEC,SUBSTATION,307806,Arvin,70,93203,CA,Kern County,Unincorporated,-118.87846735666,35.1503145253093
-13239584.8089,4207041.4073,339,Other,,CEC,SUBSTATION,302255,Arvin-Edison,,93307,CA,Kern County,Unincorporated,-118.933213892029,35.3169805583225
-13247513.2211,4216629.8032,340,PG&E,,CEC,SUBSTATION,303106,Bakersfield,230,93301,CA,Kern County,Bakersfield,-119.004436030987,35.3872324717794
-13342054.0973,4247722.735,341,PG&E,,CEC,SUBSTATION,310253,Blackwell,70,93249,CA,Kern County,Unincorporated,-119.853711171959,35.6146222338205
-13291941.8629,4178401.6713,342,PG&E,,CEC,SUBSTATION,306815,Cadet,70,93268,CA,Kern County,Taft,-119.403545311103,35.1067804929468
-13256571.3611,4206226.3593,343,PG&E,,CEC,SUBSTATION,305663,Carnation Dairy,70,93313,CA,Kern County,Bakersfield,-119.085806686818,35.3110060763955
-13336657.2618,4237659.7733,344,PG&E,,CEC,SUBSTATION,310382,Carneras,70,93249,CA,Kern County,Unincorporated,-119.805230573172,35.5410999469626
-13331664.7025,4228581.4271,345,Other,,CEC,SUBSTATION,306309,Celeron,70,93251,CA,Kern County,Unincorporated,-119.760381650265,35.4747136019453
-13294822.1037,4177090.1363,346,PG&E,,CEC,SUBSTATION,304735,Chalk,70,93252,CA,Kern County,Unincorporated,-119.429418954169,35.0971415142484
-13283233.1797,4246826.2443,347,PG&E,,CEC,SUBSTATION,303174,Charca,115,93280,CA,Kern County,Unincorporated,-119.325313878591,35.6080750074876
-13240326.9384,4218155.5409,348,PG&E,,CEC,SUBSTATION,306049,Columbus,115,93306,CA,Kern County,Bakersfield,-118.939880555467,35.3984055553762
-13278070.4748,4176579.7353,349,PG&E,,CEC,SUBSTATION,308995,Copus,70,93311,CA,Kern County,Unincorporated,-119.2789365112,35.0933900716438
-13314876.3654,4206788.2657,350,Other,,CEC,SUBSTATION,303117,Cymric,115,93251,CA,Kern County,Unincorporated,-119.609569451647,35.3151250215423
-13355421.0937,4269706.8653,351,PG&E,,CEC,SUBSTATION,302208,Devils Den,70,93249,CA,Kern County,Unincorporated,-119.973788942899,35.7750083343641
-13249374.7209,4225963.327,352,Other,,CEC,SUBSTATION,306927,Dexel,115,93308,CA,Kern County,Unincorporated,-119.021158167784,35.4555582809205
-13244396.0903,4222194.8438,353,Other,,CEC,SUBSTATION,300808,Discovery,115,93308,CA,Kern County,Unincorporated,-118.976434368469,35.4279781762416
-13252144.538,4232180.5416,354,Other,,CEC,SUBSTATION,301581,Double C,115,93308,CA,Kern County,Unincorporated,-119.046039858387,35.5010390648225
-13243876.989,4212335.9141,355,PG&E,,CEC,SUBSTATION,303798,Eisen,,93307,CA,Kern County,Unincorporated,-118.971771202569,35.3557797154006
-13288942.6725,4194645.2937,356,PG&E,,CEC,SUBSTATION,308944,Elk Hills,70,93268,CA,Kern County,Unincorporated,-119.376603124899,35.2260666401644
-13269689.9665,4246410.7404,357,PG&E,,CEC,SUBSTATION,306798,Famoso,115,93250,CA,Kern County,Unincorporated,-119.203653124383,35.605040329046
-13312174.084,4190436.7609,358,PG&E,,CEC,SUBSTATION,307326,Fellows,115,93224,CA,Kern County,Unincorporated,-119.585294445565,35.1951777890488
-13282806.6048,4217560.2921,359,Other,,CEC,SUBSTATION,310454,Frito Lay,,93206,CA,Kern County,Unincorporated,-119.3214818911,35.3940466911502
-13257337.3898,4215269.2302,360,PG&E,,CEC,SUBSTATION,310060,Fruitvale,,93308,CA,Kern County,Bakersfield,-119.092688039604,35.3772675950959
-13296998.1675,4232190.9476,361,PG&E,,CEC,SUBSTATION,302966,Ganso,115,93280,CA,Kern County,Unincorporated,-119.448966867457,35.501115166032
-13284443.3238,4184774.9363,362,Other,,CEC,SUBSTATION,306903,Gardner,70,93268,CA,Kern County,Unincorporated,-119.336184787913,35.1536038548615
-13311571.4133,4245945.0407,363,PG&E,,CEC,SUBSTATION,309604,Goose Lake,115,93280,CA,Kern County,Unincorporated,-119.579880562534,35.6016389035654
-13238802.9961,4152788.7571,364,Other,,CEC,SUBSTATION,304813,Grapevine,70,93243,CA,Kern County,Unincorporated,-118.92619074861,34.9183352196164
-13254015.7878,4166668.9725,365,Other,,CEC,SUBSTATION,304677,Kelley,70,93225,CA,Kern County,Unincorporated,-119.062849581413,35.0205118531649
-13250415.8933,4233329.9984,366,PG&E,,CEC,SUBSTATION,300211,Kern Front,115,93308,CA,Kern County,Unincorporated,-119.030511179072,35.509444866227
-13329354.626,4224180.2595,367,PG&E,,CEC,SUBSTATION,303203,Kernridge,115,93251,CA,Kern County,Unincorporated,-119.739629880166,35.4425098612892
-13258276.2803,4176682.368,368,PG&E,,CEC,SUBSTATION,306458,Lakeview,70,93313,CA,Kern County,Unincorporated,-119.101122236666,35.0941444348373
-13231594.1327,4204285.0735,369,PG&E,,CEC,SUBSTATION,304543,Lamont,115,93307,CA,Kern County,Unincorporated,-118.861432427075,35.296774246433
-13263920.7404,4232088.5122,370,PG&E,,CEC,SUBSTATION,300679,Lerdo,115,93308,CA,Kern County,Unincorporated,-119.151827284651,35.500366029903
-13332451.6829,4254734.9875,371,Other,,CEC,SUBSTATION,308439,Lost Hills (Texaco),,93249,CA,Kern County,Unincorporated,-119.767451215511,35.665815431473
-13238306.6203,4213065.7765,372,PG&E,,CEC,SUBSTATION,302908,Magunden,,93306,CA,Kern County,Unincorporated,-118.921731728524,35.3611268252774
-13291344.7109,4178537.6814,373,PG&E,,CEC,SUBSTATION,306516,Maricopa,70,93268,CA,Kern County,Taft,-119.398181003077,35.1077800180784
-13277839.2973,4257827.7816,374,PG&E,,CEC,SUBSTATION,303734,Mc Farland,70,93250,CA,Kern County,McFarland,-119.276859808316,35.6883840601955
-13320749.0628,4207429.5716,375,PG&E,,CEC,SUBSTATION,306607,Sysquoc,70,93251,CA,Kern County,Unincorporated,-119.662324789955,35.3198257331365
-13316543.6802,4196873.97,376,Other,,CEC,SUBSTATION,300477,Midsun,115,93224,CA,Kern County,Unincorporated,-119.624547196045,35.2424194223365
-13297377.684,4218875.9941,377,PG&E,"15, 26",CEC,SUBSTATION,300895,Midway,,93206,CA,Kern County,Unincorporated,-119.452376122619,35.4036809461799
-13311619.2532,4195586.2017,378,Other,,CEC,SUBSTATION,303270,Mobil,70,93224,CA,Kern County,Unincorporated,-119.580310315478,35.2329708995439
-13292330.7694,4176230.7628,379,Other,,CEC,SUBSTATION,305753,Moco,70,93252,CA,Kern County,Unincorporated,-119.407038916907,35.0908250280062
-13256075.1643,4238167.6178,380,Other,,CEC,SUBSTATION,301564,Mt. Poso,115,93308,CA,Kern County,Unincorporated,-119.081349275288,35.5448119910654
-13281421.2916,4202815.6192,381,PG&E,,CEC,SUBSTATION,302068,Norco,115,93276,CA,Kern County,Unincorporated,-119.309037411112,35.2859998123323
-13258227.7414,4192242.2239,382,PG&E,,CEC,SUBSTATION,307206,Old River,70,93313,CA,Kern County,Unincorporated,-119.100686204075,35.2084305632113
-13249429.7067,4204118.925,383,PG&E,,CEC,SUBSTATION,309551,Panama,70,93307,CA,Kern County,Bakersfield,-119.02165211399,35.2955560727978
-13331570.801,4234459.9268,384,Other,,CEC,SUBSTATION,301433,Petro Lewis,70,93249,CA,Kern County,Unincorporated,-119.759538118772,35.5177070021344
-13255417.9225,4238571.1068,385,Other,,CEC,SUBSTATION,304420,Ultra Power,,93308,CA,Kern County,Unincorporated,-119.075445171843,35.5477611356809
-13276042.1096,4224114.6383,386,PG&E,,CEC,SUBSTATION,308428,Rio Bravo,115,93263,CA,Kern County,Unincorporated,-119.260715396873,35.44202960741
-13227274.8305,4222446.9396,387,PG&E,,CEC,SUBSTATION,306232,Rio Bravo,70,93306,CA,Kern County,Bakersfield,-118.822631474688,35.4298234651747
-13240652.1507,4162770.841,388,Other,,CEC,SUBSTATION,300494,Rose,70,93307,CA,Kern County,Unincorporated,-118.942801986951,34.9918293518023
-13255694.8656,4215254.9623,389,PG&E,,CEC,,,Rosedale,115,93308,CA,Kern County,Unincorporated,-119.077932993829,35.3771630902207
-13233451.4189,4176444.6577,390,PG&E,,CEC,SUBSTATION,308921,San Bernard,70,93203,CA,Kern County,Unincorporated,-118.878116712145,35.0923972236561
-13311846.0019,4190187.3974,391,Other,,CEC,SUBSTATION,304147,Santa Fe Energy,115,93224,CA,Kern County,Unincorporated,-119.582347233361,35.1933471972111
-13295724.3592,4245822.7542,392,PG&E,,CEC,SUBSTATION,304816,Semitropic,115,93280,CA,Kern County,Unincorporated,-119.437524052775,35.6007457104286
-13282396.8989,4233939.9298,393,PG&E,,CEC,SUBSTATION,304894,Shafter,115,93263,CA,Kern County,Unincorporated,-119.317801440507,35.5139048439034
-13250325.8993,4229844.8194,394,PG&E,,CEC,SUBSTATION,303310,Badger Creek,115,93308,CA,Kern County,Unincorporated,-119.029702748635,35.4839555757379
-13297707.8038,4261863.191,395,PG&E,,CEC,SUBSTATION,307733,Smyrna,115,93280,CA,Kern County,Unincorporated,-119.455341639383,35.7178215099263
-13198819.5277,4178678.7343,396,Other,,CEC,SUBSTATION,303250,Stallion,66,93561,CA,Kern County,Tehachapi,-118.56701314087,35.1088165903627
-13254548.4155,4207051.8255,397,PG&E,,CEC,SUBSTATION,306267,Stockdale,230,93313,CA,Kern County,Bakersfield,-119.067634257306,35.3170569230085
-13296426.3829,4176557.8342,398,PG&E,,CEC,SUBSTATION,301560,Berry Petroleum,70,93252,CA,Kern County,Unincorporated,-119.443830439519,35.0932290951689
-13300678.4966,4182371.058,399,Other,,CEC,SUBSTATION,309706,Taft,115,93268,CA,Kern County,Taft,-119.482027826597,35.1359461066186
-13296077.6226,4176357.4398,400,Other,,CEC,SUBSTATION,310190,Tannehill Electric Co.,70,93252,CA,Kern County,Unincorporated,-119.440697472539,35.0917561480925
-13244752.76,4166552.0103,401,PG&E,,CEC,SUBSTATION,305592,Tecuya,70,93313,CA,Kern County,Unincorporated,-118.979638386596,35.0196513901787
-13242027.3816,4166552.364,402,PG&E,,CEC,SUBSTATION,303781,Tejon,70,93307,CA,Kern County,Unincorporated,-118.955155896207,35.0196539927166
-13324518.6532,4216017.5032,403,PG&E,,CEC,SUBSTATION,308923,Temblor,115,93251,CA,Kern County,Unincorporated,-119.696187596712,35.3827481209955
-13310611.8161,4190322.8016,404,Other,,CEC,SUBSTATION,306333,Midset,115,93224,CA,Kern County,Unincorporated,-119.571260354236,35.1943412126685
-13277148.6441,4212114.9871,405,PG&E,,CEC,SUBSTATION,307333,Tupman,115,93314,CA,Kern County,Unincorporated,-119.270655565554,35.3541610923557
-13342542.445,4263623.1331,406,PG&E,,CEC,SUBSTATION,308624,Twisselman,70,93249,CA,Kern County,Unincorporated,-119.858098073343,35.7306565072243
-13247746.0097,4242508.2451,407,PG&E,,CEC,SUBSTATION,304418,Rio Bravo Poso,115,93308,CA,Kern County,Unincorporated,-119.006527206232,35.5765324095423
-13242460.7196,4244716.1229,408,Other,,CEC,SUBSTATION,305081,Vedder,115,93308,CA,Kern County,Unincorporated,-118.959048637525,35.5926623124057
-13283331.1998,4245968.6166,409,PG&E,,CEC,SUBSTATION,308820,Wasco,115,93280,CA,Kern County,Unincorporated,-119.326194408306,35.6018111032607
-13233661.9942,4194329.2231,410,PG&E,,CEC,SUBSTATION,304041,Weedpatch,70,93307,CA,Kern County,Unincorporated,-118.880008342454,35.2237472237682
-13222414.9485,4194407.3106,411,PG&E,,CEC,SUBSTATION,305777,Wellfield,70,93203,CA,Kern County,Unincorporated,-118.778974411849,35.2243202587495
-13251507.4344,4214813.2637,412,PG&E,,CEC,SUBSTATION,308607,West Park,,93301,CA,Kern County,Bakersfield,-119.040316659454,35.3739278075394
-13244343.8026,4175948.8345,413,PG&E,,CEC,SUBSTATION,309582,Wheeler Ridge,230,93307,CA,Kern County,Unincorporated,-118.975964660073,35.088752717801
-13244515.3383,4222191.9417,414,PG&E,,CEC,SUBSTATION,308807,Witco,115,93308,CA,Kern County,Unincorporated,-118.977505591684,35.4279569332626
-13312969.286,4204188.7507,415,Other,,CEC,SUBSTATION,301396,Getty Oil,115,93251,CA,Kern County,Unincorporated,-119.592437865877,35.2960680256951
-13249327.7322,4223933.7311,416,PG&E,,CEC,SUBSTATION,303990,Kern Oil,115,93308,CA,Kern County,Unincorporated,-119.020736061065,35.4407056097126
-13212079.3085,4138837.2645,417,SCE,,CEC,SUBSTATION,309973,Alamo,66,93536,CA,Los Angeles County,Unincorporated,-118.686127777919,34.8155055494323
-13194116.6718,4244092.724,418,SCE,,CEC,SUBSTATION,308790,Borel,66,93205,CA,Kern County,Unincorporated,-118.524766667625,35.5881083292965
-13177346.9101,4180730.6254,419,SCE,,CEC,SUBSTATION,301406,Breeze,66,93561,CA,Kern County,Unincorporated,-118.374121334554,35.1238940685227
-13269784.8693,4259927.0741,420,SCE,,CEC,SUBSTATION,304943,Browning,66,93250,CA,Kern County,Unincorporated,-119.204505650653,35.7036993068944
-13170300.4678,4167994.891,421,SCE,,CEC,SUBSTATION,301041,Cal Cement,66,93501,CA,Kern County,Unincorporated,-118.310822067089,35.0302656862779
-13130475.3695,4155808.3191,422,SCE,,CEC,SUBSTATION,310266,Corum,66,93523,CA,Kern County,Unincorporated,-117.953067121771,34.9405740106373
-13190766.0279,4178793.9967,423,SCE,,CEC,SUBSTATION,307260,Cummings,66,93561,CA,Kern County,Unincorporated,-118.494667320999,35.1096636222136
-13274012.8377,4269776.2355,424,SCE,,CEC,SUBSTATION,303312,Delano,66,93215,CA,Kern County,Delano,-119.242486137234,35.7755139164187
-13227681.5418,4155898.7541,425,Other,,CEC,SUBSTATION,303926,Edmonston,,93560,CA,Kern County,Unincorporated,-118.826285024881,34.9412399629862
-13123576.6037,4161771.9367,426,SCE,,CEC,SUBSTATION,303186,Edwards,,93523,CA,Kern County,Unincorporated,-117.891094454463,34.9844777819919
-13248121.3823,4138768.6876,427,SCE,,CEC,SUBSTATION,301158,Frazier Park,66,93225,CA,Kern County,Unincorporated,-119.009899236328,34.8149997849349
-13213075.0495,4262470.3818,428,SCE,,CEC,SUBSTATION,303613,Glennville,66,93226,CA,Kern County,Unincorporated,-118.695072672208,35.7222498956301
-13156422.7365,4171236.7665,429,SCE,,CEC,SUBSTATION,309740,Goldtown,66,93501,CA,Kern County,Unincorporated,-118.186156285162,35.0541089421544
-13153006.4488,4141803.9717,430,SCE,,CEC,SUBSTATION,300070,Great Lakes,,93560,CA,Kern County,Unincorporated,-118.155467250909,34.8373824691697
-13197638.3154,4264681.1842,431,SCE,,CEC,SUBSTATION,309479,Greenhorn,66,93285,CA,Kern County,Unincorporated,-118.556402130211,35.7383717220002
-13194428.9117,4229808.2048,432,SCE,,CEC,SUBSTATION,303852,Havilah,66,93518,CA,Kern County,Unincorporated,-118.527571566404,35.4836877472074
-13102753.2289,4165800.5288,433,SCE,,CEC,SUBSTATION,304443,Holgate,115,93523,CA,Kern County,Unincorporated,-117.704034895897,35.0141227037594
-13112968.5724,4252913.2364,434,SCE,,CEC,SUBSTATION,300959,Inyokern,,93555,CA,Kern County,Unincorporated,-117.795800887548,35.6525188265352
-13188939.1295,4250192.7752,435,SCE,,CEC,SUBSTATION,303743,Isabella,66,93240,CA,Kern County,Unincorporated,-118.478256013552,35.6326585910954
-13183830.4994,4269364.3795,436,SCE,,CEC,SUBSTATION,308434,Kernville,66,93238,CA,Kern County,Unincorporated,-118.43236440841,35.7725121894439
-13189339.7215,4251801.5149,437,SCE,,CEC,SUBSTATION,309651,Lakegen,66,93240,CA,Kern County,Unincorporated,-118.481854592375,35.6444035011693
-13182820.0388,4205666.9954,438,SCE,,CEC,SUBSTATION,307171,Loraine,66,93518,CA,Kern County,Unincorporated,-118.423287286396,35.3069055607542
-13177964.8153,4180712.6354,439,SCE,,CEC,SUBSTATION,304561,Monolith,66,93561,CA,Kern County,Unincorporated,-118.37967207194,35.1237618886358
-13562306.3731,4597141.9466,440,Other,15X,CEC,SUBSTATION,303072,Shiloh I,,94571,CA,Solano County,Unincorporated,-121.83227102823,38.12530207088
-13272998.0496,4262018.0494,441,SCE,,CEC,SUBSTATION,309927,Pandol,66,93215,CA,Kern County,Unincorporated,-119.233370140554,35.7189509522157
-13229556.4684,4155089.1258,442,SCE,,CEC,SUBSTATION,304860,Pastoria,,93243,CA,Kern County,Unincorporated,-118.84312777674,34.9352777661936
-13261469.5973,4263925.273,443,SCE,,CEC,SUBSTATION,308687,Quinn,66,93215,CA,Kern County,Unincorporated,-119.129808291439,35.7328597607281
-13096453.7792,4213625.0072,444,SCE,,CEC,SUBSTATION,306204,Randsburg,,93528,CA,Kern County,Unincorporated,-117.647445976487,35.3652236151527
-13102090.1347,4154439.5552,445,SCE,,CEC,SUBSTATION,307682,Rocket Test,115,93524,CA,Kern County,Unincorporated,-117.698078219126,34.9304939397039
-13162119.4894,4145452.7773,446,SCE,,CEC,SUBSTATION,308310,Rosamond,66,93560,CA,Kern County,Unincorporated,-118.237331087559,34.8642813088397
-13124154.2267,4147579.9035,447,SCE,,CEC,SUBSTATION,301654,Southbase,115,93524,CA,Kern County,Unincorporated,-117.896283329773,34.8799583347758
-13190525.6546,4219879.1024,448,SCE,,CEC,SUBSTATION,307099,Walker Basin,66,93518,CA,Kern County,Unincorporated,-118.492508010783,35.4110254538307
-13164957.0691,4254846.9819,449,SCE,,CEC,SUBSTATION,301495,Weldon,66,93283,CA,Kern County,Unincorporated,-118.262821499446,35.6666327842418
-13219308.2728,4139367.2103,450,SCE,,CEC,SUBSTATION,304254,Westpac,66,93243,CA,Kern County,Unincorporated,-118.75106666957,34.8194138714433
-13245952.4473,4225514.0411,451,SCE,,CEC,SUBSTATION,301730,Sycamore,,93308,CA,Kern County,Unincorporated,-118.990415361336,35.4522706231241
-13308646.4927,4312343.4495,452,PG&E,,CEC,SUBSTATION,305860,Boswell,,93212,CA,Kings County,Unincorporated,-119.553605553103,36.0851444424841
-13310661.6852,4299525.2272,453,PG&E,,CEC,SUBSTATION,303505,Angiola,60,93239,CA,Kings County,Unincorporated,-119.571708335998,35.9920333395243
-13319077.6874,4337657.0591,454,Other,,CEC,SUBSTATION,303747,Armstrong,60,93230,CA,Kings County,Hanford,-119.647310569647,36.2686979283888
-13371380.9001,4297611.4428,455,Other,,CEC,SUBSTATION,307390,Avenal,60,93204,CA,Kings County,Avenal,-120.117158323147,35.9781222351611
-13309045.808,4315685.2338,456,PG&E,,CEC,SUBSTATION,301468,Corcoran,115,93212,CA,Kings County,Unincorporated,-119.557192664057,36.1094009453367
-13319958.6857,4331806.5926,457,PG&E,,CEC,SUBSTATION,309019,Guernsey,60,93230,CA,Kings County,Unincorporated,-119.655224711603,36.2263133691691
-13319259.1535,4337788.5538,458,Other,,CEC,,,Hanford,60,93230,CA,Kings County,Hanford,-119.648940707464,36.2696502964534
-13323367.7596,4356371.9957,459,PG&E,,CEC,SUBSTATION,309205,Hardwick,60,93230,CA,Kings County,Unincorporated,-119.685848944325,36.4041265497173
-13347571.1805,4333960.3917,460,PG&E,15,CEC,SUBSTATION,304664,Henrietta,,93245,CA,Kings County,Unincorporated,-119.903271972898,36.2419195547581
-13333839.0207,4331268.1108,461,PG&E,,CEC,SUBSTATION,310279,Jacobs Corner,60,93245,CA,Kings County,Unincorporated,-119.779913883207,36.2224111044914
-13370738.9574,4306621.56,462,PG&E,,CEC,SUBSTATION,302850,Kettleman Hills,60,93204,CA,Kings County,Avenal,-120.111391654039,36.0435944476891
-13335885.8209,4343269.1331,463,PG&E,,CEC,SUBSTATION,303868,Lemoore,60,93245,CA,Kings County,Lemoore,-119.798300602089,36.3093338112066
-13319779.1493,4338711.3467,464,PG&E,,CEC,SUBSTATION,303921,Reserve Oil,60,93230,CA,Kings County,Hanford,-119.653611909166,36.2763334239979
-13352715.4065,4301096.4782,465,PG&E,,CEC,SUBSTATION,310461,Tulare Lake,60,93239,CA,Kings County,Unincorporated,-119.949483341653,36.003452769529
-13680497.5874,4722784.2626,466,PG&E,,CEC,SUBSTATION,307060,Clear Lake,60,95453,CA,Lake County,Unincorporated,-122.894000771299,39.0077675085857
-13671163.6021,4697213.7148,467,PG&E,,CEC,SUBSTATION,308881,Eagle Rock,,95441,CA,Sonoma County,Unincorporated,-122.810152154866,38.8290483552186
-13684790.8552,4732737.8684,468,PG&E,,CEC,SUBSTATION,309308,Hartley,60,95453,CA,Lake County,Unincorporated,-122.932567852214,39.0772140703826
-13663466.3196,4711983.1076,469,PG&E,,CEC,SUBSTATION,310004,Konocti,60,95451,CA,Lake County,Unincorporated,-122.741006289886,38.9323303616213
-13649702.9067,4708879.6908,470,PG&E,,CEC,SUBSTATION,303121,Lower Lake,115,95457,CA,Lake County,Unincorporated,-122.617367447652,38.9106407023607
-13671462.608,4737495.8996,471,PG&E,,CEC,SUBSTATION,309793,Lucerne,115,95464,CA,Lake County,Unincorporated,-122.812838170234,39.1103868560324
-13648740.5543,4686340.628,472,PG&E,,CEC,SUBSTATION,305745,Middletown,,95461,CA,Lake County,Unincorporated,-122.608722488845,38.7529172124159
-13654714.044,4725616.4985,473,PG&E,,CEC,SUBSTATION,310476,Redbud,115,95423,CA,Lake County,Unincorporated,-122.662383260156,39.0275350391145
-13683019.8233,4742569.1998,474,PG&E,,CEC,SUBSTATION,301549,Upper Lake,60,95485,CA,Lake County,Unincorporated,-122.916658401991,39.1457404903959
-13500605.2194,4974785.8334,475,PG&E,,CEC,SUBSTATION,300245,Halls Flat,60,96056,CA,Lassen County,Unincorporated,-121.278000134796,40.7448922210402
-13418489.6812,4911822.6031,476,Other,,CEC,SUBSTATION,301652,Janesville,60,96114,CA,Lassen County,Unincorporated,-120.540343704288,40.314994794555
-13405385.7193,4919194.7944,477,Other,,CEC,SUBSTATION,300920,Standish,60,96130,CA,Lassen County,Unincorporated,-120.422628811375,40.3654728071609
-13432601.1605,4926798.02,478,Other,,CEC,SUBSTATION,310003,Susan,60,96130,CA,Lassen County,Susanville,-120.667109279954,40.4174931629468
-13416950.4568,4923919.5995,479,Other,,CEC,SUBSTATION,301221,Leavitt,60,96130,CA,Lassen County,Unincorporated,-120.526516616131,40.3978040827996
-13397517.9353,4888530.909,480,Other,,CEC,SUBSTATION,303624,Milford,60,96121,CA,Lassen County,Unincorporated,-120.351951305717,40.1552665378355
-13414387.1032,5006566.517,481,Other,,CEC,SUBSTATION,300834,Madeline,,96132,CA,Lassen County,Unincorporated,-120.503489619449,40.9608347732087
-13479853.5127,4951770.8292,482,PG&E,,CEC,SUBSTATION,302156,Bogard,60,96056,CA,Lassen County,Unincorporated,-121.091584381861,40.5880712721608
-13479468.2934,4905160.8259,483,PG&E,,CEC,SUBSTATION,304224,Hamilton Branch,60,96137,CA,Plumas County,Unincorporated,-121.08812389778,40.2693485663829
-13469845.9288,4909630.7001,484,Other,,CEC,SUBSTATION,301991,Westwood,60,96137,CA,Lassen County,Unincorporated,-121.001684725321,40.29997936679
-13167336.5361,4050670.0173,485,Other,,CEC,SUBSTATION,304129,Airway,66,91201,CA,Los Angeles County,Glendale,-118.284196615385,34.1627028091268
-13170530.3361,4021621.752,486,LADWP,,CEC,SUBSTATION,306623,Gramercy,138,90047,CA,Los Angeles County,Los Angeles,-118.312887008982,33.9465090060373
-13169465.3015,4008380.0137,487,LADWP,,CEC,SUBSTATION,304137,Halldale,,90501,CA,Los Angeles County,Los Angeles,-118.303319640551,33.8477736335384
-13183114.1716,4019633.3994,488,LADWP,,CEC,SUBSTATION,301100,Hyperion,,90045,CA,Los Angeles County,Los Angeles,-118.425929526623,33.9316903980557
-13186770.3109,4065595.2444,489,SCE,,CEC,SUBSTATION,301636,San Fernando,66,91345,CA,Los Angeles County,Los Angeles,-118.458773184779,34.2735702360914
-13170168.8136,4018929.9746,490,LADWP,,CEC,SUBSTATION,300627,Imperial Terminal Tower,138,90047,CA,Los Angeles County,Unincorporated,-118.309639397005,33.9264473616061
-13190068.1247,4037974.6262,491,LADWP,,CEC,SUBSTATION,309843,Kenter Canyon,230,90049,CA,Los Angeles County,Los Angeles,-118.488397949632,34.0682842809125
-13179564.4314,4027502.6004,492,SCE,,CEC,SUBSTATION,300578,Movie,66,90230,CA,Los Angeles County,Culver City,-118.394041667779,33.9903221426058
-13175636.1227,4043040.8778,493,LADWP,,CEC,SUBSTATION,308206,Nichols Canyon,230,90046,CA,Los Angeles County,Los Angeles,-118.358753069882,34.1059757915809
-13185852.4362,4070217.041,494,LADWP,,CEC,SUBSTATION,306152,Olive,66,91342,CA,Los Angeles County,Los Angeles,-118.450527775753,34.3078722251181
-13188947.5307,4066549.3874,495,LADWP,LADWP-N,CEC,SUBSTATION,307693,Rinaldi,500,91344,CA,Los Angeles County,Los Angeles,-118.478331482962,34.2806528292749
-13161291.0678,4033869.3929,496,LADWP,,CEC,SUBSTATION,309042,River,230,90021,CA,Los Angeles County,Los Angeles,-118.229889249075,34.0377301769802
-13160871.432,4037815.7839,497,LADWP,,CEC,SUBSTATION,310527,Station A (St. John),230,90012,CA,Los Angeles County,Los Angeles,-118.226119596954,34.067102266986
-13164104.4188,4021859.6728,498,LADWP,LADWP-S,CEC,SUBSTATION,304073,Station B (Century),287,90002,CA,Los Angeles County,Los Angeles,-118.255162011768,33.9482819867387
-13164407.1012,4001736.657,499,LADWP,,CEC,SUBSTATION,310179,Station C (Wilmington),138,90744,CA,Los Angeles County,Los Angeles,-118.257881054226,33.7981952276228
-13176972.4799,4033939.4648,500,LADWP,,CEC,SUBSTATION,303099,Station D (Fairfax),,90034,CA,Los Angeles County,Los Angeles,-118.370757770981,34.0382517946816
-13175757.1773,4052488.3326,501,LADWP,LADWP-N,CEC,SUBSTATION,300429,Station E (Toluca),500,91601,CA,Los Angeles County,Los Angeles,-118.359840521844,34.1762174036543
-13158391.318,4030875.1469,502,LADWP,,CEC,SUBSTATION,308269,Station F (Velasco & Kinetic),230,90023,CA,Los Angeles County,Los Angeles,-118.203840354147,34.0154378970692
-13164022.9119,4043503.6851,503,LADWP,,CEC,SUBSTATION,301194,Station G (Atwater),230,90039,CA,Los Angeles County,Los Angeles,-118.254429822204,34.1094181131713
-13174369.933,4040650.1387,504,LADWP,,CEC,SUBSTATION,303899,Station H (Hollywood),230,90046,CA,Los Angeles County,Los Angeles,-118.347378694177,34.0881914447734
-13196202.8328,4059640.1127,505,LADWP,,CEC,SUBSTATION,300493,Station J,230,91324,CA,Los Angeles County,Los Angeles,-118.543506970163,34.229351877875
-13186910.7754,4033273.7441,506,LADWP,,CEC,SUBSTATION,301105,Station K (Olympic),230,90025,CA,Los Angeles County,Los Angeles,-118.460034998278,34.0332960142556
-13183051.6378,4017961.4404,507,LADWP,,CEC,SUBSTATION,309553,Station L (Scattergood),230,90293,CA,Los Angeles County,Los Angeles,-118.425367775485,33.9192277821064
-13179398.9216,4061468.8094,508,LADWP,LADWP-N,CEC,SUBSTATION,309569,Station M (Valley),230,91352,CA,Los Angeles County,Los Angeles,-118.392554867429,34.2429328853814
-13163098.9423,4034624.8053,509,LADWP,,CEC,SUBSTATION,306012,Station P (Market),230,90013,CA,Los Angeles County,Los Angeles,-118.246129662759,34.0433533269444
-13165195.3465,3998023.5085,510,LADWP,,CEC,SUBSTATION,308581,Station Q (Harbor),138,90744,CA,Los Angeles County,Los Angeles,-118.264961982211,33.7704720195239
-13182805.1971,4051865.3617,511,LADWP,,CEC,SUBSTATION,304217,Station S (Van Nuys),230,91401,CA,Los Angeles County,Los Angeles,-118.423153961652,34.1715874278411
-13201555.22,4054276.5792,512,LADWP,,CEC,SUBSTATION,308991,Station T,230,91303,CA,Los Angeles County,Los Angeles,-118.59158828232,34.1895064030078
-13196235.5129,4052910.1071,513,LADWP,,CEC,SUBSTATION,303620,Station U (Tarzana),230,91356,CA,Los Angeles County,Los Angeles,-118.543800541001,34.1793519255817
-13190256.0649,4070789.7416,514,LADWP,,CEC,SUBSTATION,310199,Sylmar West,230,91344,CA,Los Angeles County,Los Angeles,-118.4900862456,34.3121217113653
-13174002.5863,4055556.2821,515,Other,,CEC,SUBSTATION,309148,Lincoln,66,91504,CA,Los Angeles County,Burbank,-118.344078762827,34.1990149756932
-13170657.4514,4052510.3908,516,Other,,CEC,SUBSTATION,308793,Mcneil,66,91502,CA,Los Angeles County,Burbank,-118.314028905274,34.176381337982
-13127347.2199,4045619.5888,517,SCE,,CEC,SUBSTATION,305828,Aerojet,66,91702,CA,Los Angeles County,Azusa,-117.92496647576,34.1251542431621
-13179295.8018,4015598.8272,518,SCE,,CEC,SUBSTATION,308336,Airchem,,90266,CA,Los Angeles County,Manhattan Beach,-118.39162852715,33.9016139909303
-13130760.7073,4035179.3857,519,SCE,,CEC,SUBSTATION,300792,Bassett,66,91744,CA,Los Angeles County,Unincorporated,-117.955630354957,34.0474812835252
-13152296.6875,4041063.3275,520,SCE,,CEC,SUBSTATION,304857,Alhambra,66,91801,CA,Los Angeles County,Alhambra,-118.149091356294,34.0912653607278
-13163238.5358,4006661.7992,521,SCE,,CEC,SUBSTATION,307439,Alon,66,90745,CA,Los Angeles County,Carson,-118.247383652287,33.8349536039999
-13138655.4894,4038399.824,522,SCE,,CEC,SUBSTATION,304533,Amador,66,91731,CA,Los Angeles County,El Monte,-118.026550388837,34.0714482801709
-13171514.4913,4010211.2902,523,SCE,,CEC,SUBSTATION,307425,Amco,,90504,CA,Los Angeles County,Torrance,-118.321727825643,33.8614351291567
-13152140.4649,4105261.1619,524,SCE,,CEC,SUBSTATION,301945,Anaverde,66,93551,CA,Los Angeles County,Palmdale,-118.147687984669,34.5675059974621
-13139980.9361,4042994.2372,525,SCE,,CEC,SUBSTATION,307809,Anita,66,91780,CA,Los Angeles County,Arcadia,-118.038457079358,34.105628874736
-13169156.0227,4121496.0579,526,SCE,26,CEC,SUBSTATION,304120,Antelope,,93536,CA,Los Angeles County,Lancaster,-118.300541341621,34.6875128410192
-13191509.1411,4080192.6254,527,SCE,,CEC,SUBSTATION,305791,Appgen,,91321,CA,Los Angeles County,Santa Clarita,-118.501342820902,34.3818611329824
-13248073.1922,4231485.0371,528,PG&E,,CEC,SUBSTATION,300602,Live Oak,,93308,CA,Kern County,Unincorporated,-119.00946633695,35.4959525196287
-13138564.2781,4048171.7233,529,SCE,,CEC,SUBSTATION,301228,Arcadia,66,91006,CA,Los Angeles County,Arcadia,-118.025731023685,34.1441307562874
-13162803.6762,4004322.2867,530,SCE,,CEC,SUBSTATION,306365,Arcogen,230,90745,CA,Los Angeles County,Carson,-118.243477242255,33.8174948228886
-13154692.3355,4055651.4791,531,SCE,,CEC,SUBSTATION,304040,Arroyo,66,91011,CA,Los Angeles County,La Cañada Flintridge,-118.170611828824,34.1997222745686
-13153996.8399,4004551.0695,532,SCE,,CEC,SUBSTATION,310163,Astro,66,90807,CA,Los Angeles County,Long Beach,-118.164364085105,33.8192022883132
-13152377.7611,3999477.7154,533,SCE,,CEC,SUBSTATION,308646,Belmont,66,90804,CA,Los Angeles County,Long Beach,-118.149819653175,33.7813305271374
-13125786.474,4047084.323,534,SCE,,CEC,SUBSTATION,301299,Azusa,66,91702,CA,Los Angeles County,Azusa,-117.910946056707,34.1360458625505
-13221940.8602,4133551.3318,535,SCE,,CEC,SUBSTATION,303949,Bailey,,93536,CA,Los Angeles County,Unincorporated,-118.774715604289,34.776511933891
-13154759.079,4028750.3337,536,SCE,,CEC,SUBSTATION,310504,Bandini,66,90040,CA,Los Angeles County,Vernon,-118.171211395565,33.9996150262907
-13134673.1154,4035588.7732,537,SCE,,CEC,SUBSTATION,303715,Industry,66,91746,CA,Los Angeles County,Industry,-117.990776114847,34.0505283842373
-13161028.3767,4029890.4814,538,SCE,,CEC,SUBSTATION,301340,Beejay,66,90058,CA,Los Angeles County,Vernon,-118.22752945532,34.0081057434285
-13179930.9574,4038625.6828,539,SCE,,CEC,SUBSTATION,301156,Beverly,66,90210,CA,Los Angeles County,Beverly Hills,-118.397334226628,34.0731289019338
-13151347.8782,4006049.7602,540,SCE,,CEC,SUBSTATION,306752,Boost,,90808,CA,Los Angeles County,Long Beach,-118.140568057774,33.8303865631718
-13142825.4747,4008782.1798,541,SCE,,CEC,SUBSTATION,308237,Bovine,66,90703,CA,Los Angeles County,Cerritos,-118.064010004389,33.8507740177162
-13154877.9099,4001060.6632,542,SCE,,CEC,SUBSTATION,309752,Bowl,66,90806,CA,Los Angeles County,Long Beach,-118.172278871693,33.7931487730887
-13134283.9718,4046782.0113,543,SCE,,CEC,SUBSTATION,309905,Bradbury,66,91016,CA,Los Angeles County,Monrovia,-117.987280378709,34.1337980170319
-13150160.9554,4020388.1558,544,SCE,,CEC,SUBSTATION,301930,Downey,66,90241,CA,Los Angeles County,Downey,-118.129905748297,33.9373156791803
-13129008.4449,4045890.9408,545,SCE,,CEC,SUBSTATION,302376,Brew,66,91706,CA,Los Angeles County,Irwindale,-117.939889513507,34.1271720959518
-13171977.0329,4012774.1663,546,SCE,,CEC,SUBSTATION,306526,Bridge,66,90504,CA,Los Angeles County,Torrance,-118.325882907343,33.8805507582327
-13145085.1013,4010029.5257,547,SCE,,CEC,SUBSTATION,308249,Artesia,,90701,CA,Los Angeles County,Artesia,-118.08430857537,33.8600792463571
-13170416.9262,4015720.8508,548,SCE,,CEC,SUBSTATION,302164,Brighton,66,90249,CA,Los Angeles County,Gardena,-118.311868229895,33.9025237924432
-13152626.12,3997555.09,549,SCE,,CEC,SUBSTATION,302239,Broadway,66,90803,CA,Los Angeles County,Long Beach,-118.152050698739,33.7669740633092
-13158662.4931,4015397.9598,550,SCE,,CEC,SUBSTATION,301489,Bullis,66,90221,CA,Los Angeles County,Compton,-118.206276361654,33.9001163136415
-13161557.67,4022963.5142,551,SCE,,CEC,SUBSTATION,300393,Calden,66,90002,CA,Los Angeles County,Unincorporated,-118.232284177618,33.9565073081264
-13159854.7895,4004573.2005,552,SCE,,CEC,SUBSTATION,307274,Cameron,66,90810,CA,Los Angeles County,Long Beach,-118.216986942152,33.8193674562231
-13161278.6818,3998612.3703,553,SCE,,CEC,SUBSTATION,303622,Carbogen,66,90813,CA,Los Angeles County,Long Beach,-118.229777984239,33.7748691936688
-13140939.6088,4015810.8767,554,SCE,,CEC,SUBSTATION,301258,Carmenita,66,90670,CA,Los Angeles County,Santa Fe Springs,-118.047068982797,33.9031950143786
-13159854.25,4010553.1008,555,SCE,,CEC,SUBSTATION,303540,Carson,66,90220,CA,Los Angeles County,Unincorporated,-118.216982095202,33.8639848269413
-13147472.4651,4019249.6343,556,SCE,,CEC,SUBSTATION,300232,Center,,90650,CA,Los Angeles County,Norwalk,-118.105754629577,33.9288300121963
-13154811.0439,4004203.4929,557,SCE,,CEC,SUBSTATION,300978,Certified,66,90807,CA,Los Angeles County,Long Beach,-118.171678204513,33.8166082204119
-13162178.6838,3996542.7746,558,SCE,,CEC,SUBSTATION,309853,Dock,66,90802,CA,Los Angeles County,Long Beach,-118.23786283975,33.759414022518
-13156104.0143,3999113.9551,559,SCE,,CEC,SUBSTATION,309501,Cherry,66,90813,CA,Los Angeles County,Long Beach,-118.183293155201,33.7786144718634
-13181803.4732,4017072.7682,560,SCE,,CEC,SUBSTATION,303344,Chevgen,66,90245,CA,Los Angeles County,El Segundo,-118.41415532229,33.9126029667343
-13121450.0052,4044794.0108,561,SCE,LADWP-S,CEC,SUBSTATION,303995,Citrus,66,91740,CA,Los Angeles County,Glendora,-117.871990894422,34.119014707694
-13147627.2248,4001408.9391,562,SCE,,CEC,SUBSTATION,301594,Clark,66,90815,CA,Los Angeles County,Long Beach,-118.107144859273,33.795748772338
-13147780.3347,3999848.6532,563,SCE,,CEC,SUBSTATION,300449,College,66,90840,CA,Los Angeles County,Long Beach,-118.108520269099,33.7841000850753
-13188260.0944,4032241.7683,564,SCE,,CEC,SUBSTATION,306694,Colorado,66,90404,CA,Los Angeles County,Santa Monica,-118.472156137598,34.0256131737556
-13160227.3073,3996195.4332,565,SCE,,CEC,SUBSTATION,307247,Commodore,66,90802,CA,Los Angeles County,Long Beach,-118.220333326178,33.7568198987316
-13158690.2567,4029358.795,566,Other,,CEC,SUBSTATION,308605,Ybarra,66,90058,CA,Los Angeles County,Vernon,-118.20652576583,34.0041463629465
-13154105.02,4010477.195,567,SCE,,CEC,SUBSTATION,309439,Corners,66,90805,CA,Los Angeles County,Long Beach,-118.165335884143,33.8634186229036
-13149098.8564,4013196.413,568,SCE,,CEC,SUBSTATION,307369,Cornuta,,90706,CA,Los Angeles County,Bellflower,-118.1203647507,33.8836997428037
-13122295.3388,4041240.0685,569,SCE,,CEC,SUBSTATION,303098,Cortez,66,91723,CA,Los Angeles County,Covina,-117.879584655418,34.0925801903126
-13171184.0376,4018610.8111,570,SCE,,CEC,SUBSTATION,306405,Cosmic,66,90250,CA,Los Angeles County,Hawthorne,-118.318759308856,33.9240683434409
-13215287.1009,4043174.824,571,SCE,,CEC,SUBSTATION,301620,Crater,66,91301,CA,Los Angeles County,Unincorporated,-118.714943867524,34.1069720861908
-13177243.6694,3997551.1412,572,SCE,,CEC,SUBSTATION,309970,Crest,66,90275,CA,Los Angeles County,Rancho Palos Verdes,-118.373193907572,33.7669445747205
-13134494.5707,4036532.6645,573,SCE,,CEC,SUBSTATION,308436,Cryco,66,91746,CA,Los Angeles County,Industry,-117.989172220009,34.0575534176913
-13157325.4128,4023948.0073,574,SCE,,CEC,SUBSTATION,310167,Cudahy,66,90201,CA,Los Angeles County,Cudahy,-118.194265164375,33.9638426289361
-13180518.2555,4030759.3839,575,SCE,,CEC,SUBSTATION,300470,Culver,,90232,CA,Los Angeles County,Culver City,-118.402610015151,34.0145759187708
-13128311.3841,4044106.2688,576,SCE,,CEC,SUBSTATION,305955,Dalton,66,91706,CA,Los Angeles County,Irwindale,-117.933627709975,34.1138998702028
-13146483.0865,4008374.8853,577,SCE,,CEC,SUBSTATION,302187,Del Amo,,90703,CA,Los Angeles County,Cerritos,-118.096866890502,33.8477353725144
-13167868.6376,4125620.2628,578,SCE,,CEC,SUBSTATION,303933,Del Sur,66,93536,CA,Los Angeles County,Lancaster,-118.288976564053,34.7179709221122
-13114686.9046,4029197.835,579,SCE,,CEC,SUBSTATION,303677,Diamond Bar,66,91765,CA,Los Angeles County,Diamond Bar,-117.811236928074,34.0029476840438
-13160520.5591,3996914.9492,580,SCE,,CEC,SUBSTATION,306938,Dike,66,90802,CA,Los Angeles County,Long Beach,-118.222967652495,33.7621935257086
-13177768.3867,4011671.8009,581,SCE,,CEC,SUBSTATION,301303,Ditmar,66,90278,CA,Los Angeles County,Redondo Beach,-118.377907523426,33.8723291111786
-13160527.6464,4010350.848,582,SCE,,CEC,SUBSTATION,304662,Domhill,66,90220,CA,Los Angeles County,Unincorporated,-118.223031317947,33.8624761538724
-13178298.7324,4018371.3521,583,SCE,,CEC,SUBSTATION,306091,Douglas,66,90245,CA,Los Angeles County,El Segundo,-118.382671699724,33.9222833918639
-13151759.7929,4015245.1541,584,SCE,,CEC,SUBSTATION,306971,Dougoil,66,90723,CA,Los Angeles County,Paramount,-118.144268350725,33.8989769688435
-13156218.1469,4049076.3496,585,SCE,,CEC,SUBSTATION,301558,Eagle Rock,,91206,CA,Los Angeles County,Glendale,-118.184318425764,34.1508561244287
-13145242.4971,4050610.2143,586,SCE,,CEC,SUBSTATION,310415,Eaton,,91107,CA,Los Angeles County,Pasadena,-118.085722486217,34.1622582879941
-13177257.9403,4014800.1154,587,SCE,,CEC,SUBSTATION,310204,El Nido,,90260,CA,Los Angeles County,Hawthorne,-118.373322105196,33.8956585988759
-13204316.937,4094942.2893,588,SCE,,CEC,SUBSTATION,304039,Elizabeth Lake,66,91384,CA,Los Angeles County,Unincorporated,-118.616397208358,34.4911396793468
-13145771.0981,4012687.712,589,SCE,,CEC,SUBSTATION,308401,Eric,66,90703,CA,Los Angeles County,Cerritos,-118.090470989726,33.8799059940483
-13154339.9292,4026385.8434,590,SCE,,CEC,SUBSTATION,303277,Federalgen,66,90040,CA,Los Angeles County,Commerce,-118.167446109242,33.9820038847737
-13176004.1009,4017501.7165,591,SCE,,CEC,SUBSTATION,309156,Felton,66,90250,CA,Los Angeles County,Unincorporated,-118.362058674184,33.9158007265268
-13159687.4849,4019178.1264,592,SCE,,CEC,SUBSTATION,309116,Fernwood,66,90262,CA,Los Angeles County,Lynwood,-118.215484019496,33.9282970188831
-13161670.5832,4004849.9082,593,SCE,,CEC,SUBSTATION,307600,Polypro,66,90745,CA,Los Angeles County,Carson,-118.23329849431,33.8214325478294
-13203415.2516,4098106.4402,594,SCE,,CEC,SUBSTATION,301304,MWD Foothill,66,91384,CA,Los Angeles County,Unincorporated,-118.608297231159,34.5145638829129
-13160936.484,4028264.3865,595,SCE,,CEC,SUBSTATION,306190,Fruitland,66,90058,CA,Los Angeles County,Vernon,-118.226703968597,33.995995903385
-13160911.8343,3997234.1406,596,SCE,,CEC,SUBSTATION,308367,Fuel,,90802,CA,Los Angeles County,Long Beach,-118.226482537407,33.7645772635156
-13178322.4018,4015286.9053,597,SCE,,CEC,SUBSTATION,306536,Galaxy,,90266,CA,Los Angeles County,Manhattan Beach,-118.382884325699,33.8992882743901
-13148095.4016,4023640.4697,598,SCE,,CEC,SUBSTATION,308300,Gallatin,,90240,CA,Los Angeles County,Downey,-118.111350563472,33.9615512770862
-13108457.8174,4036631.4899,599,SCE,,CEC,SUBSTATION,309496,Pomona,,91766,CA,Los Angeles County,Pomona,-117.755280085888,34.0582889049014
-13110723.8485,4036529.8485,600,SCE,,CEC,SUBSTATION,300558,Ganesha,66,91766,CA,Los Angeles County,Pomona,-117.77563618979,34.0575324602691
-13152381.4082,4045593.9828,601,SCE,,CEC,SUBSTATION,308716,Garfield,66,91030,CA,Los Angeles County,Pasadena,-118.149852415151,34.1249638266621
-13161658.4368,4002967.6737,602,SCE,,CEC,SUBSTATION,307128,Gatx,66,90810,CA,Los Angeles County,Carson,-118.233189381248,33.8073842960281
-13145487.3,4049143.6344,603,SCE,,CEC,SUBSTATION,303371,Goodrich,,91107,CA,Los Angeles County,Pasadena,-118.087921587773,34.1513563258707
-13227772.8809,4135453.2749,604,SCE,,CEC,SUBSTATION,306131,Gorman,66,93243,CA,Los Angeles County,Unincorporated,-118.827105538035,34.7905444367663
-13156512.2224,4058580.7826,605,SCE,,CEC,SUBSTATION,300829,Gould,,91011,CA,Los Angeles County,La Cañada Flintridge,-118.186960151291,34.2214836500732
-13140355.8134,4039751.0365,606,SCE,,CEC,SUBSTATION,304240,Ductile,66,91731,CA,Los Angeles County,El Monte,-118.041824659019,34.0815021925772
-13140983.4387,4012846.6597,607,SCE,,CEC,SUBSTATION,310533,Greening,66,90703,CA,Los Angeles County,Cerritos,-118.047462713508,33.8810913997248
-13161004.7802,3999156.096,608,SCE,,CEC,SUBSTATION,304450,Harborgen,,90813,CA,Los Angeles County,Los Angeles,-118.227317484466,33.7789291257789
-13193057.1545,4087862.8261,609,SCE,,CEC,SUBSTATION,306242,Haskell,,91350,CA,Los Angeles County,Santa Clarita,-118.515248861246,34.4387065937899
-13151528.0129,4000779.2446,610,SCE,,CEC,SUBSTATION,304689,Hathaway,66,90815,CA,Los Angeles County,Long Beach,-118.142186234859,33.7910478285786
-13148375.1882,4111268.0804,611,SCE,,CEC,SUBSTATION,301323,Helijet,66,93550,CA,Los Angeles County,Palmdale,-118.113863928597,34.6119288101935
-13138485.3249,4032062.5763,612,SCE,,CEC,,301318,Hillgen,66,91745,CA,Los Angeles County,Unincorporated,-118.025021775078,34.0242790561221
-13160472.8459,4004560.0059,613,SCE,,CEC,SUBSTATION,300390,Hinson,230,90810,CA,Los Angeles County,Long Beach,-118.222539037425,33.8192689826103
-13169893.8363,4018416.3954,614,SCE,,CEC,SUBSTATION,304354,Howard,66,90047,CA,Los Angeles County,Unincorporated,-118.3071692339,33.9226191523702
-13179314.9725,4016954.1466,615,SCE,,CEC,SUBSTATION,307087,Hughesair,66,90245,CA,Los Angeles County,El Segundo,-118.391800740116,33.9117186348663
-13173603.164,4003381.0479,616,SCE,,CEC,SUBSTATION,303303,Hughtron,66,90505,CA,Los Angeles County,Torrance,-118.340490691884,33.8104697542777
-13152206.9237,4016971.0966,617,SCE,,CEC,SUBSTATION,306884,Imperial,66,90242,CA,Los Angeles County,Downey,-118.148284994389,33.9118449989578
-13132105.8002,4033289.9626,618,SCE,,CEC,RISER,301535,Unknown,66,91744,CA,Los Angeles County,Industry,-117.967713529779,34.0334167524542
-13175563.8118,4024190.3784,619,SCE,,CEC,SUBSTATION,310427,Inglewood,66,90302,CA,Los Angeles County,Inglewood,-118.358103490283,33.965648405478
-13153444.6473,4002158.1664,620,SCE,,CEC,SUBSTATION,310201,Injection,66,90755,CA,Los Angeles County,Signal Hill,-118.15940365515,33.8013417443994
-13163328.1979,4012633.918,621,SCE,,CEC,SUBSTATION,308207,Jersey,66,90220,CA,Los Angeles County,Carson,-118.248189100896,33.8795048040786
-13154398.0102,4057507.287,622,SCE,,CEC,SUBSTATION,307594,Jet,,91001,CA,Los Angeles County,Pasadena,-118.167967859706,34.2135094574464
-13138543.5336,4033785.1844,623,SCE,LADWP-S,CEC,SUBSTATION,307564,Jose,,91746,CA,Los Angeles County,Unincorporated,-118.025544673164,34.0371033208851
-13158362.1052,4030812.9353,624,SCE,,CEC,,,Kinetic,230,90023,CA,Los Angeles County,Los Angeles,-118.20357793063,34.0149746670434
-13159131.9348,4056398.2303,625,SCE,,CEC,SUBSTATION,303005,La Canada,66,91011,CA,Los Angeles County,La Cañada Flintridge,-118.210493427313,34.2052703161185
-13177815.081,4028901.1214,626,SCE,,CEC,SUBSTATION,308786,La Cienega,,90056,CA,Los Angeles County,Unincorporated,-118.378326986054,34.0007379962261
-13172751.8099,4011324.9902,627,SCE,,CEC,SUBSTATION,306844,La Fresa,,90504,CA,Los Angeles County,Torrance,-118.33284284783,33.8697423680817
-13137303.4605,4013857.584,628,SCE,,CEC,SUBSTATION,306369,La Mirada,66,90638,CA,Los Angeles County,La Mirada,-118.014404906765,33.8886303180342
-13152161.1587,4025566.2857,629,SCE,,CEC,SUBSTATION,306060,Laguna Bell,,90040,CA,Los Angeles County,Commerce,-118.147873880524,33.975898822044
-13149576.217,4006030.6638,630,SCE,,CEC,SUBSTATION,306224,Lakewood,66,90808,CA,Los Angeles County,Long Beach,-118.124652954449,33.8302440619749
-13151908.4932,4123254.3881,631,SCE,,CEC,SUBSTATION,306426,Lancaster,66,93534,CA,Los Angeles County,Lancaster,-118.145604147703,34.7004998336572
-13161135.5464,4121925.3138,632,Other,,CEC,SUBSTATION,306598,Lanpri,66,93536,CA,Los Angeles County,Lancaster,-118.228492177133,34.6906835046926
-13127510.0177,4040501.6671,633,SCE,,CEC,SUBSTATION,305865,Lark Ellen,66,91722,CA,Los Angeles County,Covina,-117.926428912961,34.087086863573
-13222094.9893,4034823.9617,634,SCE,,CEC,SUBSTATION,307368,Latigo,66,90265,CA,Los Angeles County,Unincorporated,-118.776100169285,34.0448357482067
-13110063.4246,4040890.658,635,SCE,,CEC,SUBSTATION,304618,Layfair,66,91768,CA,Los Angeles County,Pomona,-117.769703500714,34.0899808007388
-13174368.143,4021050.8551,636,SCE,,CEC,SUBSTATION,304630,Lennox,66,90304,CA,Los Angeles County,Unincorporated,-118.347362614527,33.9422545430896
-13159955.091,4028480.7759,637,Other,,CEC,SUBSTATION,310295,Owill,66,90058,CA,Los Angeles County,Vernon,-118.217887965659,33.9976074964229
-13155184.5941,4012777.6663,638,SCE,,CEC,SUBSTATION,303169,Lighthipe,,90805,CA,Los Angeles County,Long Beach,-118.175033862557,33.8805768604384
-13128114.2472,4043831.2847,639,SCE,LADWP-S,CEC,SUBSTATION,301331,Liquid,66,91706,CA,Los Angeles County,Irwindale,-117.931856799404,34.111854687181
-13132243.5681,4111845.9981,640,SCE,,CEC,SUBSTATION,304724,Little Rock,66,93591,CA,Los Angeles County,Unincorporated,-117.968951120244,34.6162014176725
-13105854.6007,4045083.2842,641,SCE,,CEC,SUBSTATION,306072,Live Oak,66,91711,CA,Los Angeles County,Claremont,-117.731894992828,34.1211659838186
-13156907.2584,4003489.0007,642,SCE,,CEC,SUBSTATION,300965,Los Cerritos,66,90806,CA,Los Angeles County,Long Beach,-118.190508819862,33.8112755045378
-13180728.5842,4019648.8007,643,SCE,,CEC,SUBSTATION,309722,Losulfur,,90045,CA,Los Angeles County,Los Angeles,-118.404499430347,33.9318051892294
-13149124.9086,4007654.0064,644,SCE,,CEC,SUBSTATION,303671,Lucas,,90713,CA,Los Angeles County,Lakewood,-118.120598782047,33.8423569457045
-13174345.92,4051946.8479,645,SCE,,CEC,SUBSTATION,309898,Macneil,66,91505,CA,Los Angeles County,Burbank,-118.347162982267,34.1721930552319
-13161036.6811,3997156.691,646,SCE,,CEC,,,Main Oil,,90802,CA,Los Angeles County,Long Beach,-118.227604055265,33.7639988715962
-13220465.7495,4048632.5502,647,SCE,,CEC,SUBSTATION,308551,Malibu,66,91301,CA,Los Angeles County,Agoura Hills,-118.761464459464,34.1475568017644
-13187540.3136,4029739.6784,648,SCE,,CEC,SUBSTATION,301795,Marine,,90405,CA,Los Angeles County,Santa Monica,-118.465690236187,34.0069827576562
-13179000.9667,3994903.9825,649,SCE,,CEC,SUBSTATION,307779,Marymount,66,90275,CA,Los Angeles County,Rancho Palos Verdes,-118.388979978522,33.747173996009
-13146982.8597,4024718.2748,650,SCE,,CEC,SUBSTATION,309821,Rivera,66,90660,CA,Los Angeles County,Pico Rivera,-118.101356429468,33.9695813437202
-13125370.1772,4035480.8724,651,SCE,,CEC,SUBSTATION,300554,Merced,66,91791,CA,Los Angeles County,West Covina,-117.907206398758,34.0497252815413
-13147997.4029,4033806.6108,652,SCE,,CEC,SUBSTATION,301541,Mesa,,91755,CA,Los Angeles County,Monterey Park,-118.110470225726,34.03726282164
-13173059.4787,4009145.0062,653,SCE,,CEC,,,Mobgen,,90503,CA,Los Angeles County,Torrance,-118.335606683761,33.853480815352
-13172764.4454,4009626.6444,654,SCE,,CEC,SUBSTATION,308806,Mobil Oil,,90503,CA,Los Angeles County,Torrance,-118.33295635397,33.857073854253
-13140498.4496,4022684.1907,655,SCE,,CEC,SUBSTATION,302941,Murphy,66,90602,CA,Los Angeles County,Unincorporated,-118.043105982403,33.9544259919988
-13143140.0089,4029474.2403,656,SCE,,CEC,SUBSTATION,300235,Narrows,66,90660,CA,Los Angeles County,Pico Rivera,-118.06683551305,34.0050060812456
-13161143.6547,3994247.7806,657,SCE,,CEC,SUBSTATION,307683,Navy Mole,66,90802,CA,Los Angeles County,Long Beach,-118.228565014993,33.7422723793885
-13160100.2513,3997150.4165,658,SCE,,CEC,SUBSTATION,301949,Navy-1,,90802,CA,Los Angeles County,Long Beach,-118.219191962599,33.7639520139881
-13191519.5297,4133360.7361,659,SCE,,CEC,SUBSTATION,303903,Neenach,66,93536,CA,Los Angeles County,Unincorporated,-118.501436142617,34.7751055907781
-13165578.1441,4005643.2888,660,SCE,,CEC,SUBSTATION,303695,Neptune,66,90745,CA,Los Angeles County,Carson,-118.268400711558,33.8273533351102
-13150076.663,4034922.7263,661,SCE,,CEC,SUBSTATION,308907,Newmark,,91754,CA,Los Angeles County,Monterey Park,-118.129148537171,34.0455708931244
-13197946.4351,4079835.4364,662,SCE,,CEC,SUBSTATION,310019,Newhall,66,91355,CA,Los Angeles County,Santa Clarita,-118.559170016544,34.3792129898456
-13119591.0214,4029709.8828,663,SCE,,CEC,SUBSTATION,301517,Nogales,,91789,CA,Los Angeles County,Industry,-117.855291359653,34.0067608768003
-13166460.4404,4009953.8482,664,SCE,,CEC,SUBSTATION,300008,Nola,,90248,CA,Los Angeles County,Carson,-118.276326513289,33.8595147194143
-13186099.6534,4084748.5651,665,SCE,,CEC,SUBSTATION,303988,North Oaks,66,91387,CA,Los Angeles County,Santa Clarita,-118.4527485657,34.4156308133542
-13146260.1225,4115973.8068,666,SCE,,CEC,SUBSTATION,310499,Oasis,66,93550,CA,Los Angeles County,Palmdale,-118.09486397078,34.646712354836
-13127051.5129,4021590.0535,667,SCE,,CEC,SUBSTATION,306279,Olinda,,91748,CA,Los Angeles County,Unincorporated,-117.922310094478,33.9462727866103
-13215771.0953,4137879.8837,668,SCE,,CEC,SUBSTATION,300582,Oso,66,93536,CA,Los Angeles County,Unincorporated,-118.719291663125,34.8084444477625
-13161445.3287,4035520.7808,669,SCE,,CEC,,,Owill,,90012,CA,Los Angeles County,Los Angeles,-118.231274998494,34.0500223197129
-13133112.6041,4033441.7656,670,SCE,,CEC,SUBSTATION,307232,Package,66,91746,CA,Los Angeles County,Industry,-117.976757803545,34.0345468329426
-13161734.5461,4008146.1195,671,SCE,,CEC,SUBSTATION,307617,Pacline,66,90810,CA,Los Angeles County,Carson,-118.233873082749,33.8460286035285
-13142288.4833,4105064.9024,672,SCE,,CEC,SUBSTATION,301132,Palmdale,66,93550,CA,Los Angeles County,Palmdale,-118.059186128744,34.5660542037179
-13174576.3581,4001079.5932,673,SCE,,CEC,SUBSTATION,301215,Palogen,66,90274,CA,Los Angeles County,Rolling Hills Estates,-118.349233043213,33.7932900937098
-13208877.9486,4107963.6347,674,LADWP,,CEC,SUBSTATION,309730,Castaic,230,91384,CA,Los Angeles County,Unincorporated,-118.657369472937,34.5874944649795
-13200580.9266,4087938.9324,675,SCE,,CEC,SUBSTATION,308504,Pardee,,91355,CA,Los Angeles County,Santa Clarita,-118.582836056037,34.4392704397302
-13144844.5875,4023996.7763,676,SCE,,CEC,SUBSTATION,307499,Passons,66,90670,CA,Los Angeles County,Santa Fe Springs,-118.08214800328,33.9642059834853
-13126758.9694,4097364.1894,677,SCE,,CEC,SUBSTATION,300583,Pearblossom,,93553,CA,Los Angeles County,Unincorporated,-117.919682131963,34.509069592435
-13158704.8373,3997302.7732,678,SCE,,CEC,SUBSTATION,308263,Pico,66,90802,CA,Los Angeles County,Long Beach,-118.206656745472,33.7650898068409
-13144733.3698,4017471.5419,679,SCE,,CEC,SUBSTATION,301243,Pioneer,66,90650,CA,Los Angeles County,Norwalk,-118.081148918095,33.915575782575
-13201845.2467,4091222.5768,680,SCE,,CEC,SUBSTATION,305070,Pitchgen,,91384,CA,Los Angeles County,Unincorporated,-118.594193637163,34.463594238579
-13132290.5047,4121921.5461,681,SCE,,CEC,SUBSTATION,306168,Piute,66,93535,CA,Los Angeles County,Unincorporated,-117.96937275878,34.6906556760371
-13179083.2437,4019232.7464,682,SCE,,CEC,SUBSTATION,305909,Polaris,,90245,CA,Los Angeles County,El Segundo,-118.389719084842,33.9287041363352
-13158835.1882,3997268.1318,683,SCE,,CEC,SUBSTATION,304338,Tidelands,66,90802,CA,Los Angeles County,Long Beach,-118.207827707473,33.764831107346
-13143241.4535,4020076.2514,684,SCE,,CEC,SUBSTATION,309408,Powerine,66,90670,CA,Los Angeles County,Santa Fe Springs,-118.06774680523,33.9349910665889
-13143003.5742,4023239.684,685,SCE,,CEC,SUBSTATION,308255,Procal,66,90670,CA,Los Angeles County,Santa Fe Springs,-118.065609899165,33.9585650741989
-13132254.3576,4031739.0446,686,SCE,,CEC,SUBSTATION,301131,Proctor,66,91745,CA,Los Angeles County,Industry,-117.969048043633,34.0218702505185
-13127954.6949,4030012.0399,687,SCE,,CEC,SUBSTATION,300408,Puente,66,91748,CA,Los Angeles County,Industry,-117.930423516162,34.0090109437565
-13158641.7752,4028530.4542,688,Other,,CEC,SUBSTATION,301614,Leonis,66,90058,CA,Los Angeles County,Vernon,-118.206090249562,33.9979774791669
-13161113.0751,4117709.8679,689,SCE,,CEC,SUBSTATION,305829,Quartz Hill,66,93536,CA,Los Angeles County,Lancaster,-118.228290314159,34.6595411988086
-13123199.071,4028413.1414,690,SCE,,CEC,SUBSTATION,304779,Railroad,66,91748,CA,Los Angeles County,Industry,-117.887703020301,33.9971037819177
-13150174.5777,4038194.3321,691,SCE,,CEC,SUBSTATION,302401,Ramona,66,91803,CA,Los Angeles County,Alhambra,-118.130028120058,34.0699191805624
-13158555.5846,4026481.2756,692,SCE,,CEC,SUBSTATION,309483,Randolph,66,90255,CA,Los Angeles County,Huntington Park,-118.205315985746,33.9827147507555
-13144725.0807,4045165.2087,693,SCE,,CEC,SUBSTATION,304811,Ravendale,66,91775,CA,Los Angeles County,Unincorporated,-118.081074455325,34.1217752320373
-13132295.4261,4131745.1402,694,SCE,,CEC,SUBSTATION,306762,Redman,66,93535,CA,Los Angeles County,Unincorporated,-117.969416968429,34.7631836745645
